address,categories,id,lat,long,name,neighborhood
2501 N Capitol St NE (North Capitol & Channing St NE),Grocery Store,4b565191f964a520000b28e3,38.922529,-77.008847,Fairway Market,Stronghold
"Washington, D.C.",Coffee Shop,51c18cf2498e825fe3e0053e,38.929360160415605,-77.00999902832012,VA Medical Center Patriot Coffee,Stronghold
Moving Target (Check Twitter for current location),Food Truck,4ffeef4de4b03c980fdd520e,38.926481910480106,-77.01438621982652,PhoWheels,Stronghold
1st Street and Michigan Avenue NW,Park,4e4195768130d0f89744065e,38.92624733426845,-77.01212167739868,McMillan Park Reservoir,Stronghold
200 Michigan Ave NE,Deli / Bodega,4b6b0b67f964a520f2ee2be3,38.92941359143722,-77.00434746596852,Trinity Deli,Stronghold
106 Irving St,Bakery,56278dd0498e26b03b890a0e,38.9293191,-77.0140116,Panera Bread,Stronghold
"Washington, D.C.",Coffee Shop,524aea4f11d2c9b6567dcbf6,38.929787,-77.010808,Starbucks,Stronghold
2314 4th St NE,Peruvian Restaurant,5844802ff68d8d5570f94441,38.92065384637331,-77.00062906724727,Huacatay,Stronghold
524 Rhode Island Ave Ne,Department Store,50bbcf85e4b04809beb2b17a,38.921725983021794,-76.9987540876132,Big Lots,Stronghold
514 Rhode Island Ave NE,Department Store,4b7b43eaf964a5206a5b2fe3,38.921398124412846,-76.99975269011476,Forman Mills,Stronghold
McMilland Drive NW & Michigan Ave NW,Reservoir,4be85206ee96c92817f2fdbf,38.924976275482244,-77.01720714601832,McMillan Reservoir,Stronghold
514 Rhode Island Ave NE,Grocery Store,5116e2a2e4b091f4436d07a7,38.92171560719818,-76.99866689346108,Save-A-Lot,Stronghold
634-636 Rhode Island Ave NE,Fried Chicken Joint,4b85c04ef964a520eb7031e3,38.921630641437325,-76.99751934911843,Popeye's,Stronghold
"Washington, D.C. 20001",Intersection,50106b76e4b022ae04aa58db,38.92689570334398,-77.0091280254608,north capital & michigan,Stronghold
125 Michigan Ave NE,Deli / Bodega,4f29dc14e4b07e41d8b8181b,38.92727167536555,-77.004448884408,Trinity Campus Deli,Stronghold
125 Michigan Ave NE (Franklin St NE),Gym,4b42913ff964a520b8d625e3,38.92729207985316,-77.00291254460367,Trinity Gym,Stronghold
"110 Irving St NW, Suite 1200",Pharmacy,4d6bb463c147721ec58f44f5,38.928220870681145,-77.0131407700447,MedStar Pharmacy,Stronghold
208 Michigan Ave NE,Pizza Place,4c7c33143e90a1cdb0dd41be,38.929670693591234,-77.00427864223411,Domino's Pizza,Stronghold
"Washington, D.C. 20010",Gift Shop,511eaa9ce4b03cb4b8e9991c,38.92689784805072,-77.01469551827743,Children National Medical Center Gift Shop,Stronghold
514 Rhode Island Ave NE,Sandwich Place,4e0626a7fa767637fd22b574,38.92178668944629,-76.99768004423461,Subway,Stronghold
Michigan Ave & Irving St NE,Bus Stop,4de5053cd164df8575377795,38.930216,-77.0030511,"WMATA Bus Stop #1002049 (H1, H2, H3, H4, 80)",Stronghold
"Washington, D.C. 20010",Park,4e161d7a62e1c2c01932c828,38.930854999067044,-77.01285983120474,NRH Therapeutic Gardens,Stronghold
3015 4th St NE,Bookstore,4cc8e4ebbfe1f04d850c0b75,38.928074,-76.99855,Newman Bookstore,Stronghold
520 Rhode Island Ave NE,Cosmetics Shop,4cb5ed55b315a0933d339876,38.92174033366314,-76.99913173968983,Judy's Beauty Supply,Stronghold
Bryant St NW & #301,Bus Stop,4d91e0a4d7b1236a7bc73938,38.920599,-77.015975,WMATA Bus Stop #1001776 (G2),Stronghold
400 Michigan Ave NE,Bookstore,4d1e5629b69c6dcb67b35c95,38.931797692730164,-77.00050634310911,Shrine Book Store,Stronghold
2102 First St. NW,Mexican Restaurant,4d2f9d5b10e9b1f7f06cb3f1,38.918312,-77.012332,Keli's Tamale Stand,Stronghold
415 Rhode Island Ave NE,Chinese Restaurant,4b495e88f964a5208a6e26e3,38.919922743459686,-76.99989329737154,Rhode Island Express,Stronghold
"Washington, D.C. 20001",Baseball Field,4faa4d25e4b06bb61bef0ec7,38.92000637253786,-77.01581460971633,Washington Metropolitan High School Field,Stronghold
2301 Benning Road NE (at 23rd Pl NE),Fried Chicken Joint,53b03c4e498e13cc8b1339d6,38.897901,-76.972726,Hip Hop Fish & Chicken,Langston
901 17th St (btwn Maryland Av NE & Benning Rd NE),Grocery Store,4ebf42e4754a390d243c1c89,38.901558100715874,-76.97802141308784,ALDI,Langston
1101 Bladensburg Rd NE,Sandwich Place,511552cce4b01450d54e8153,38.90388209357395,-76.98078113169184,Mother Rucker Subs,Langston
1701 Gales St NE,Pool,4fea3bd0e4b0f461992499d7,38.89750587759414,-76.97877226506905,Rosedale Recreation Center,Langston
2600 Benning Rd NE,Golf Course,4b5200b5f964a520896027e3,38.89840992124347,-76.97028344632642,Langston Golf Course,Langston
1103 Bladensburg Rd NE (at L St NE),Bar,4a075333f964a5204b731fe3,38.903904260194835,-76.9806969165802,Jimmy Valentine's Lonely Hearts Club,Langston
1500 Benning Rd NE (Hechinger Mall),Sandwich Place,4c50b37b375c0f470db0b992,38.89991449408339,-76.98156304280812,Subway,Langston
1601 Maryland Ave NE,Coffee Shop,4b9e729ef964a520b1e436e3,38.900836561902835,-76.97990856304871,Starbucks,Langston
1548B Benning Rd NE,Shoe Store,57802658498e776fae47aeab,38.90045586,-76.98013488,Payless ShoeSource,Langston
1601 Maryland Ave NE,Video Store,50c7b88de4b09510548a9e1c,38.90134,-76.980417,Redbox,Langston
1548 Benning Road NE,Discount Store,53dbbc94498ef9ec187dfc8c,38.89996108160088,-76.9799648151485,Dollar Tree,Langston
"Washington, D.C.",Lake,4bb8fe7753649c74ea9647fb,38.898848649272885,-76.96407794952393,Kingman Island,Langston
900 Bladensburg Rd (Neal St NEW),Convenience Store,5024ad61e4b037046796df3d,38.9020841147434,-76.9824021309614,7-Eleven,Langston
1831 Benning Rd NE,Bar,4b22e526f964a520cc4f24e3,38.89881423987262,-76.97684107801298,Langston Bar & Grille,Langston
"1501 Maryland Ave NE, A&B",Pizza Place,4c5ffff43a3703bbfb18e406,38.90032,-76.98173,Pizza Hut,Langston
2501 Benning Rd,Convenience Store,4eb695a05c5c5a53207f4370,38.8976651353921,-76.970924596626,7-Eleven,Langston
"Washington, D.C. 20002",Track,4bbd142d4e069c7431559ee3,38.9007394636744,-76.97007529688983,Spingarn High School Track,Langston
"Washington, D.C.",Gym,4e1896d9fa7619464592c095,38.89962135471581,-76.97108228681111,Spingarn High School Gym,Langston
2301 Benning Rd NE,Fried Chicken Joint,4e4dfe54bd4101d0d79fcd42,38.89810201224529,-76.97264619880151,Popeye's Chicken & Biscuits,Langston
Anacostia River,Trail,4dc425faae608779d119e88f,38.89882450556477,-76.96968149968637,United States National Arboretum-- Anacostia River Gate,Langston
2101 Benning Rd NE (21st st NE),Café,4c8d1904c37a6dcb2113fd7a,38.898097,-76.97392711666667,RoadSide Cafe,Langston
"Washington, D.C.",Hostel,4dbd8c13a86e0e98a1fd2d55,38.897923215795956,-76.97149518031387,Capitol City,Langston
1900 Benning Rd. NE,Bus Station,4b8521c5f964a520564d31e3,38.89891928967183,-76.97621836854569,WMATA Bus Stop 1001081,Langston
Benning Rd NE (at Oklahoma Ave NE),Light Rail Station,57106f8a498eac8ccb314884,38.897826313298474,-76.97004694346703,DC Streetcar - Oklahoma Ave/Benning Rd NE,Langston
2651 Benning Rd NE,Intersection,4da7520f43a12d0c2636ba2f,38.89781892299652,-76.97002094,26 & Benning,Langston
Benning Rd NE (at 19th St NE),Light Rail Station,57106ddc498e183b9ebb4bb3,38.898915447469776,-76.97643756866454,DC Streetcar - 19th St/Benning Rd NE,Langston
1818 Benning Rd NE,Liquor Store,4eaee3e2c2ee782cf46a703e,38.899149240664066,-76.97673797607422,SYLVIA LIQUORS,Langston
1250 Bladensburg Rd NE (at 17th St NE),Diner,4ec08950b8f7963bce0e44fb,38.90678675746735,-76.97946041822433,Denny's,Langston
1251 Bladensburg Rd NE,American Restaurant,4da723954b22cb9c5c1d0dae,38.90708828129943,-76.9786157907669,Eddies Carryout,Langston
414 53rd St NE #145,Carpet Store,5ca45030ba57b4002cd34caa,38.90562051859456,-76.97507198899983,Universal Carpet Cleaning & Upholstery,Langston
1518 Benning Rd NE (Bladensburg Road N.E.),Sporting Goods Shop,4eca6e9749010f98cfee2aaf,38.90001204051204,-76.98102943883043,Modell's Sporting Goods,Langston
"Washington, D.C. 20002",Farmers Market,50b7b828e4b03e5877708056,38.896323767432385,-76.96878138701696,Open-Air Farmers Market,Langston
"Washington, D.C. 20004",Garden,4f30441be4b0d411bdfa5eb9,38.90691938015771,-76.96925394699686,Grove Of State Trees @ National Arboritum,Langston
500 19th St NE,Park,4bb1225af964a520357d3ce3,38.89798354504786,-76.9809921952237,Rosedale Recreation Center,Langston
"Washington, D.C. 20002",Soccer Field,4ce4549f42f0b1f7f4b08cce,38.895331297065674,-76.96968149968636,RFK Auxiliary Field,Langston
"1536 Benning Rd NE, Washington, DC 20002",Optical Shop,4ee255e329c20563bbe40389,38.89993428077456,-76.98079734318729,EyeSite,Langston
845 Bladensburg Rd NE (at Morse St. NE),Pharmacy,4b9c2108f964a520134d36e3,38.901238485290456,-76.98229440129468,CVS pharmacy,Langston
D St NE (at 21st St NE),Park,5b3ab20275dcb7002cc25621,38.894493,-76.974871,Panda Park/Triangle Park,Langston
"Washington, D.C. 20002",Golf Driving Range,5012cf8be4b09075802fea5d,38.89789988559514,-76.96409506810892,Langston Driving Range,Langston
1508 Benning Rd NE,Chinese Restaurant,4bf9af275317a593a2b4017f,38.89993398241243,-76.98157140429666,China Wok,Langston
1601 Benning Rd NE,Chinese Restaurant,4c5a23adec2520a197fc5012,38.899897,-76.98163578333333,China House,Langston
"Washington, D.C.",Garden,4db7049ef7b121c29f7ecaf8,38.90868112152886,-76.97141419786762,Azalea Collection @ U.S. National Aboretum,Langston
"Washington, D.C. 20002",Park,4f61fd567beb5f6a86a93834,38.89484617096399,-76.96735244450893,Kingman and Heritage Islands Park,Langston
"Washington, D.C.",River,516748dee4b0cb935345c271,38.89955,-76.962609,Anacostia River,Langston
830 Bladensburg Rd NE,Liquor Store,4de407ed18385df2b04a615b,38.90158566666667,-76.98273933333333,Roses Liquor,Langston
101 Constitution Ave NW,Steakhouse,4a6f8e4af964a52080d61fe3,38.892812935519366,-77.01239007265724,Charlie Palmer Steak,Downtown East
"Washington, D.C.",Gift Shop,51ec3494498e89994666739b,38.89765241014926,-77.01767358008435,National Building Museum Gift Shop,Downtown East
400 Block of E St NW (E Street NW between 4th & 5th St NW),Monument / Landmark,4abbf425f964a520a58520e3,38.89670272376477,-77.01756119728088,National Law Enforcement Officers Memorial,Downtown East
415 New Jersey Ave NW (btwn D & E Sts. NW),Southern / Soul Food Restaurant,4a954a29f964a520de2220e3,38.8954806,-77.01080069999999,Art and Soul,Downtown East
27-49 Louisiana Ave NW (btw D St & New Jersey Ave NW),Monument / Landmark,4b3e2b92f964a520199925e3,38.89449049018151,-77.01053869451475,National Japanese American Memorial to Patriotism in WWII,Downtown East
401 F St NW (at 5th St. NW),Museum,4a1fec4af964a5203c7c1fe3,38.89771688560257,-77.01765401537368,National Building Museum,Downtown East
555 Pennsylvania Ave NW (at 6th St NW),Museum,4a451851f964a520c5a71fe3,38.893049,-77.019373,Newseum,Downtown East
300 Massachusetts Ave NW (at 4th & H St NW),Pizza Place,509db390e4b01b9e4932c44f,38.89960847505472,-77.01596260070801,Wiseguy NY Pizza,Downtown East
Check Twitter for current location,Food Truck,4cc8bed96fbc199cd4b0617d,38.89274231926768,-77.01923367935257,DC Empanadas,Downtown East
Constitution Ave NW (4th St. NW),Art Museum,4c5d85e6fff99c74dfe642d3,38.89126350936385,-77.0168058259602,National Gallery of Art - East Building,Downtown East
"20 Massachusetts Ave NW (North Capitol, NW)",Food Truck,4f049e09c512408c65d4a802,38.897608843814545,-77.00957793336131,Food Truck Alley,Downtown East
600 F St NW,Cocktail Bar,546d6c82498e1cad95af4a5e,38.89704716170255,-77.020106613636,Denson Liquor Bar,Downtown East
See Twitter for current location,Food Truck,4afc5c3df964a520e72122e3,38.894183153954046,-77.01523538277385,Curbside Cupcakes,Downtown East
601 Pennsylvania Ave NW,American Restaurant,4af4b677f964a52054f521e3,38.89295694991948,-77.02006727161813,The Capital Grille,Downtown East
705 6th St NW,Ramen Restaurant,50905502d63e87c2d3448e35,38.898537619341155,-77.01964259147644,Daikaya,Downtown East
501 G St NW (at 5th St NW),Ramen Restaurant,575b2c62498e538453bc141f,38.89845203368468,-77.01911687850952,Bantam King,Downtown East
610 F St NW (at 6th Street NW),Theater,4b6f2fc1f964a520e7e22ce3,38.89736406316925,-77.02036323283596,Shakespeare Theatre Company - Harman Hall,Downtown East
633 D St NW (at 7th St NW),Indian Restaurant,4a08bf4df964a52013741fe3,38.89491996979955,-77.02120900154114,Rasika,Downtown East
575 Pennsylvania Ave NW (at 6th St NW),Asian Restaurant,4a786995f964a5208ee51fe3,38.89353236380857,-77.01975677620976,The Source by Wolfgang Puck,Downtown East
check Twitter for current location,Food Truck,4fa2aacde4b0489ba3b8beac,38.89730927915426,-77.00870061140992,Pho Junkies,Downtown East
601 Pennsylvania Ave NW (at Indiana Ave NW),Italian Restaurant,4d9f8a00090da0937c28d9a8,38.893813554318534,-77.02072620391846,Fiola,Downtown East
1st St NW (btwn Pennsylvania Ave NW & Maryland Ave SW),Monument / Landmark,4bc4fdf20969a5931053636e,38.89003377111947,-77.01373950233408,Capitol Reflecting Pool,Downtown East
525 New Jersey Ave NW,Hotel,4ae8d01df964a52085b221e3,38.89681041600534,-77.01107406451123,Washington Court Hotel,Downtown East
650 F St NW (btwn 6th & 7th St NW),Coffee Shop,574d9a03cd10a7141a8a4cd3,38.89709934912315,-77.02104806900024,Compass Coffee,Downtown East
2 Massachusetts Ave NE (North Capitol St NE),History Museum,4b09a487f964a520de1a23e3,38.89771724526776,-77.00829148292542,National Postal Museum,Downtown East
641 D St NW (btwn 6th & 7th St NW),Theater,4a6c6da2f964a52086d01fe3,38.89493040759938,-77.02136188745499,Woolly Mammoth Theatre Company,Downtown East
6th St and Constitution Ave NW (at Constitution Ave NW),Art Museum,4e440746b3ad4263a203aab8,38.89135015228416,-77.01988935470581,National Gallery of Art,Downtown East
Constitution Ave NW (at Madison Dr NW),Art Museum,4a4a42cef964a5209eab1fe3,38.891333450961845,-77.01995372772217,National Gallery of Art - West Building,Downtown East
401 7th St NW (at D St NW),Mexican Restaurant,4a667bf9f964a520a4c81fe3,38.89491996979955,-77.02171862125395,Oyamel Cocina Mexicana,Downtown East
"Washington, D.C. 20001",Performing Arts Venue,4fe608c3e4b05d1edbfd5350,38.8912951163119,-77.01703271316978,East Building Auditorium - National Gallery Of Art,Downtown East
413 7th St NW (at D St NW),Ice Cream Shop,4bf6cefc5efe2d7f90ca6734,38.89518508943976,-77.02171593904495,Pitango Gelato,Downtown East
601 F St NW (at 7th St NW),Basketball Stadium,446d8fa5f964a52067331fe3,38.89817674879205,-77.02081647117853,Capital One Arena,Downtown East
601 F St NW (at 7th),Salon / Barbershop,4a8dcbeff964a520e91020e3,38.89734496855647,-77.02157577325032,Bang Salon,Downtown East
2000 Pennsylvania Avenue (see Twitter for current location),Food Truck,4fc8e616e4b03339a6a04422,38.897856674909505,-77.00919551175222,Captain Cookie and the Milk Man,Downtown East
120 F St NW (New Jersey),Gym / Fitness Center,4c81300bdc018cfacb36c36c,38.89708378384621,-77.01298435362239,Sport & Fitness Center,Downtown East
475 H St NW (btwn 4th & 5th St NW),Coffee Shop,4a6f01d0f964a5202dd51fe3,38.899998406672545,-77.01866564861298,Chinatown Coffee Company,Downtown East
705 6th St NW,Japanese Restaurant,580d476738fa69fff46fc06f,38.898577168652864,-77.01986527730847,Izakaya,Downtown East
480 7th St NW (at E St NW),Tapas Restaurant,4a6e4e04f964a52074d41fe3,38.89591364146447,-77.02216386795044,Jaleo,Downtown East
U.S. Capitol Complex,Scenic Lookout,4c2b6a8e9a559c7466380de2,38.88969670232407,-77.01167106628418,U.S. Capitol - West Terrace,Downtown East
1st St NW,Monument / Landmark,4bb64dd9f562ef3b7ef22f97,38.88976343170759,-77.01302773546371,Ulysses S. Grant Memorial,Downtown East
624 E St NW (btwn 6th & 7th St NW),Seafood Restaurant,4db64690ec8e571a35e13e24,38.896191863619975,-77.02146726569346,Luke's Lobster,Downtown East
91 H ST NW,Peruvian Restaurant,54de8ac5498efdb723037b37,38.90037038010604,-77.01161473989487,District Rico,Downtown East
501B G St NW,Bar,586c359f5e56b4471f7a4d26,38.89837983566305,-77.01912480376657,Free State,Downtown East
450 7th St NW (at E St NW),Theater,4c3f4f81520fa593dc66c6ac,38.8957174132878,-77.02218532562256,Shakespeare Theatre Company - Lansburgh Theatre,Downtown East
709 D St NW,New American Restaurant,531ba78a498ef895d33151a4,38.894947108075904,-77.02255010604858,The Partisan,Downtown East
601 F St NW (at 7th St NW),Gym,4add2592f964a520496421e3,38.897331104955924,-77.02153808403328,Vida Fitness,Downtown East
50 Massachusetts Ave NE (in Union Station),Mediterranean Restaurant,4f9fdceae4b0efa846970fa0,38.897385790041945,-77.00655213446369,Roti Modern Mediterranean,Downtown East
444 7th St NW (at E St NW),Sushi Restaurant,4a100544f964a5208a761fe3,38.8957680043832,-77.02191113148488,Sei,Downtown East
410 7th St NW (at D St NW),BBQ Joint,4d7addac082e6ea8c8912108,38.895088644463215,-77.02216655015945,Hill Country Barbecue Market,Downtown East
418 7th St NW,Peruvian Restaurant,54a7101c498eb46943224c11,38.895425,-77.022176,China Chilcano,Downtown East
575 7th St NW (at F St NW),Mexican Restaurant,41ca0a80f964a520971e1fe3,38.897318898346754,-77.02152681288719,Rosa Mexicano,Downtown East
398 7th St NW (at D St NW),Gluten-free Restaurant,502459ffe4b0e522d5096f5c,38.894659,-77.022086,Protein Bar & Kitchen,Downtown East
701 Pennsylvania Ave NW,Monument / Landmark,4b6cadc4f964a520924b2ce3,38.893951048395024,-77.02280224892338,United States Navy Memorial,Downtown East
50 Massachusetts Avenue NE,Burger Joint,53a825e6498e2e83a4545ffa,38.89731891155646,-77.00653751984228,Shake Shack,Downtown East
801 9th St NW,Historic Site,4bd7309032a29521e7fed5b8,38.88981361419182,-77.0090639591217,Rotunda of the U.S. Capitol,Downtown East
800 F St NW (at 8th St. NW),Art Museum,49fb25a6f964a520196e1fe3,38.89771275421679,-77.02299004595119,National Portrait Gallery,Downtown East
440 K St NW (at 5th St NW),Café,5581a9a8498e9053810aa260,38.90228032532726,-77.01721519231796,A Baked Joint,Downtown East
"800 G St. NW (8th and F Streets, NW)",Art Museum,4a299b7df964a520b2951fe3,38.89774646995226,-77.02297925949097,Smithsonian American Art Museum,Downtown East
800 F St NW,Plaza,4ae7235df964a520c2a821e3,38.897954661304595,-77.02295870066385,Robert and Arlene Kogod Courtyard,Downtown East
Union Station,Candy Store,4c44f278429a0f474a84491e,38.897949668173744,-77.0066934948185,Neuhaus Chocolatier,Downtown East
900 6th Street NW,Coffee Shop,5648c247498e93b42e8897c8,38.901054,-77.020102,La Colombe Coffee Roasters,Downtown East
500 5th St NW,Bookstore,4b38cc81f964a5207f5025e3,38.89639271563777,-77.01933876398704,National Academies - Keck Center,Downtown East
200 New Jersey Ave NW,Park,4b1c83a9f964a520110824e3,38.893471188300396,-77.00905323028564,Upper Senate Park,Downtown East
233 2nd St NW (at Constitution Ave NW),Dive Bar,49da7e32f964a5208d5e1fe3,38.893254077287416,-77.0134600996971,Hamilton's Bar & Grill,Downtown East
709 D St NW (at 7th St NW),Deli / Bodega,530a551a498e841db25e23e8,38.894898,-77.022575,Red Apron Butchery,Downtown East
600 I St NW (at 6th St NW),Synagogue,4a9f0416f964a5203a3c20e3,38.90088412666676,-77.02017087333526,Sixth & I Historic Synagogue,Downtown East
10 C St NE,Park,4ba04aa5f964a520ae6637e3,38.89459186620286,-77.00759832611986,Lower Senate Park,Downtown East
"455 Massachusetts Ave NW, Ste 100",Brazilian Restaurant,5575f88b498e6a2031ed0eef,38.900900130455106,-77.01794826714206,Texas de Brazil,Downtown East
50 Massachusetts Ave NE,Bakery,5b9690076dcf04002c63f8c9,38.89783330443075,-77.00644717934559,Magnolia Bakery,Downtown East
Massachusetts Ave,Pool,4c840a83e602b1f77c7eab7a,38.90078163542342,-77.01613930383651,425 Mass Rooftop Pool and Terrace,Downtown East
100 Maryland Ave SW (Independence Ave),Botanical Garden,4a67befef964a52000ca1fe3,38.88825299727735,-77.01290124326792,United States Botanic Garden,Downtown East
4 F St NW (at Massachusetts Ave NW),Irish Pub,40b13b00f964a52056f41ee3,38.897141099032005,-77.0093911886215,Dubliner Restaurant & Pub,Downtown East
709 G St NW (7th St.),Music Store,4bfeedbc369476b05c148d1f,38.898737268193386,-77.02200427397115,Gibson Guitar Showroom DC,Downtown East
400 8th St NW (at D St NW),Tea Room,4a50f34ff964a5204db01fe3,38.89483790230684,-77.02303251041394,Teaism,Downtown East
704 7th St NW (at G St NW),Seafood Restaurant,4a561b68f964a52072b41fe3,38.898795416712815,-77.02185307275104,Legal Sea Foods,Downtown East
675 E St NW (at 7th St. NW),Cupcake Shop,4a381666f964a520b39e1fe3,38.896347,-77.021822,Red Velvet Cupcakery,Downtown East
601 F St NW,American Restaurant,4baaaeb4f964a5206f7f3ae3,38.89810157171325,-77.02089702227093,Acela Club,Downtown East
627 H St NW (at 7th St NW),Diner,5952f04c7b2e047f4e3fdf63,38.89999,-77.020975,Crimson Diner + Whiskey Bar,Downtown East
300 New Jersey Ave NW (D St NW),Deli / Bodega,4ce6845c595cb1f798b6bc14,38.89471371790026,-77.01124740160371,West Wing Cafe,Downtown East
700 Pennsylvania Ave NW (at 7th St NW),Museum,49c61bc3f964a52029571fe3,38.89242635847751,-77.02312380547136,National Archives and Records Administration,Downtown East
509 7th St NW (btwn E & F St NW),Steakhouse,40b13b00f964a5206df71ee3,38.89645459609729,-77.02186874802099,District Chophouse & Brewery,Downtown East
505 H St NW (at 5th St NW),Japanese Restaurant,4a750244f964a52044e01fe3,38.899996,-77.019193,Momiji,Downtown East
610 H St NW,Ice Cream Shop,4c6daf4865eda09341614fd0,38.89977810798123,-77.02055919894033,Rita's Italian Ice & Frozen Custard,Downtown East
Pennsylvania Ave NW,History Museum,4c5471cbfd2ea593aade1c2a,38.89243803549243,-77.02309823653005,National Archives Rotunda,Downtown East
Constitution Ave NW (at 7th St NW),Sculpture Garden,4478cd66f964a520d1331fe3,38.89128752230519,-77.02295780181885,National Gallery of Art - Sculpture Garden,Downtown East
E Capitol Cir (at E Capitol St),Museum,4ae35070f964a520469321e3,38.88981257675331,-77.00797906099068,U.S. Capitol Visitor Center,Downtown East
433 Massachusetts Ave NW,Gym,536ad612498e967d9ac7aa94,38.90071243682861,-77.01750466555698,[solidcore] (solidcore),Downtown East
713 H St NW (btwn 7th & 8th St NW),Pizza Place,443bc104f964a5202a321fe3,38.9000448,-77.0224838,Matchbox Vintage Pizza Bistro,Downtown East
"525 9th Street NW, Suite 700",Men's Store,5323898a498ec3b12aadb6f3,38.8968222,-77.0237596,Trunk Club,Downtown East
707 H Street NW (btwn 7th & 8th St NW),Mediterranean Restaurant,54231977498eff43caedb3d5,38.8999712,-77.0223145,CAVA,Downtown East
740 6th St NW (btwn F & H St NW),Indian Restaurant,5aeced704b78c5002c0f1502,38.89942478165486,-77.02013611793518,Spice 6,Downtown East
801 Pennsylvania Ave NW (at 8th St NW),Burger Joint,54358475498e3a3f0382e3f4,38.89428682237135,-77.02306549889148,b DC Penn Quarter,Downtown East
300 Massachusetts Avenue NW (btwn H & 4th Sts NW),Bar,5116d2ffe4b0543c89b398ce,38.8994039073748,-77.01596796512604,Carving Room Kitchen & Bar,Downtown East
707 7th St NW (btwn G & H St NW),American Restaurant,454a14f8f964a5209e3c1fe3,38.89890515840885,-77.02178256466146,Clyde's of Gallery Place,Downtown East
701 9th St NW (at G St. NW),Mediterranean Restaurant,3fd66200f964a520d5f11ee3,38.898811,-77.023645,Zaytinya,Downtown East
819 7th St NW (at I St NW),Portuguese Restaurant,4a4eb693f964a520f4ae1fe3,38.90037043531736,-77.02194153094578,Nando's Peri-Peri,Downtown East
425 I St NW,Turkish Restaurant,5723657e498e11c97d95f9e9,38.90172926443825,-77.01637297868729,Ottoman Taverna,Downtown East
15 E St NW (at North Capitol St NW),French Restaurant,4a24be9bf964a5203e7e1fe3,38.896234545952645,-77.00971880922093,Bistro Bis,Downtown East
Constitution & Independence Ave (btwn 1st & 17th St),Plaza,49c2fff9f964a5204d561fe3,38.8898577641801,-77.02207908151695,National Mall,Downtown East
800 F St NW (at 9th St NW),Burger Joint,51c22f467dd2142513d69372,38.89699497424359,-77.02376246452332,Shake Shack,Downtown East
8317 Grubb Rd (at Washington Ave.),Diner,4b2522b8f964a520b66c24e3,38.992584536174604,-77.04917616052603,Parkway Deli & Restaurant,Colonial Village
8311 Grubb Rd,Spa,4ca8f045b0b8236adba5b8e6,38.992484926944954,-77.04899719814101,The Emerald Door,Colonial Village
8301 Grubb Rd,American Restaurant,4bbff3d874a9a593e57bcff6,38.992316158229194,-77.04895419930614,"The Daily Dish, A Restaurant & Catering Company",Colonial Village
8325 Grubb Rd. (Colston Dr.),Gym,4b925b9bf964a5203af433e3,38.992983154132524,-77.04862772315705,Rock Creek Sports Club,Colonial Village
1190 East West Hwy,Park,4d6973602ab82d430ea3d7d5,38.98876879377155,-77.03084896228326,Acorn Park,Colonial Village
1302 E West Hwy,Italian Restaurant,4b7ecf2bf964a5201f0130e3,38.99255648707927,-77.03223754436048,Mamma Lucia,Colonial Village
1280 E West Hwy,Video Store,4c1e25a163750f47ff3db967,38.99171161231986,-77.03151111883399,Redbox,Colonial Village
8315 Grubb Rd,Chinese Restaurant,4c3b92734565e21e6af3566a,38.99249082132132,-77.04916590903325,Palais De Lune,Colonial Village
Rock Creek Park,Trail,4f92c61de4b0f63924bd95f2,38.981693244749444,-77.0425403890156,Rock Creek Valley Trail,Colonial Village
"Washington, D.C.",Trail,5259a70311d209f610cfa8dc,38.98829460097301,-77.05012464348002,Boundary Trail,Colonial Village
8380 Colesville Rd (at East West Hwy.),Office,4c361fd93849c9286e7ebbb1,38.99240642380891,-77.03448335403671,The Blair Building,Colonial Village
8309 Grubb Road,Convenience Store,5814bbcf38faad8ef9eaa73a,38.992449,-77.048854,Corner Market and Pharmacy,Colonial Village
8309 Grubb Rd,Grocery Store,4bdf1c17c3392d7f80339cd5,38.99235938242028,-77.04901293702511,Takoma Park Silver Spring Co-op,Colonial Village
Grubb Rd (at Washington Ave),Shopping Mall,4fd27cb7e4b0b569185dc66d,38.99254176772053,-77.04914771686227,Rock Creek Shopping Center,Colonial Village
"E West Hwy, MD",Bus Station,4f4ac94fe4b0ef2848472ccc,38.99459939061802,-77.03595648777659,"WMATA Metro Bus Stop #2000177 (J1, J2, J3, Ride On)",Colonial Village
8380 Colesville Rd Ste 100B,Business Service,4eca6077f5b9e88195d5e740,38.992898609396946,-77.03285231256814,Securitas Security Services USA,Colonial Village
7914 Georgia Ave,South American Restaurant,4eb84a7a6c2590eb894197f4,38.98550206641422,-77.02670278658599,La Fonda Paisa,Shepherd Park
1115 E West Hwy,Brewery,53a5a667498e60f10d71cb4f,38.98860059859589,-77.02731980133206,Denizens Brewing Co.,Shepherd Park
7804 Alaska Ave NW (Georgia Ave),Liquor Store,4bb11ac5f964a520bf7a3ce3,38.9841628657206,-77.0272042822018,Morris Miller Wine & Spirits,Shepherd Park
7435 Georgia Ave NW (btwn Geranium & Hemlock St NW),Pizza Place,4b9d44cdf964a520ac9e36e3,38.980894,-77.026196,Ledo Pizza,Shepherd Park
1200 E West Hwy,Coffee Shop,527b9be311d25146b36f2986,38.99022188541092,-77.02930483703065,Bump 'n Grind,Shepherd Park
8030 Georgia Ave Ste B,Ice Cream Shop,4b75fb08f964a520fb332ee3,38.98851205536994,-77.0268878180805,Moorenko's Ice Cream,Shepherd Park
8012 Georgia Ave,Seafood Restaurant,4baead07f964a520aacd3be3,38.9883225,-77.026823,Crisfield Seafood,Shepherd Park
1190 East West Hwy,Park,4d6973602ab82d430ea3d7d5,38.98876879377155,-77.03084896228326,Acorn Park,Shepherd Park
1215 E West Hwy (Blair Mill Rd),Asian Restaurant,4bfeb934daf9c9b6ed26f9ef,38.99118193176307,-77.02979503379146,Ikko Sushi,Shepherd Park
8077 Georgia Ave (Sligo Ave),Asian Restaurant,4b61d35ef964a52066252ae3,38.98991453778581,-77.02627797070441,Lotus Cafe,Shepherd Park
8010 Blair Mill Way,Wine Shop,4aa4618ff964a520a44620e3,38.98917548806203,-77.02803284111123,Veridian Market & Wine,Shepherd Park
7414 Georgia Ave NW,Caribbean Restaurant,4ada0beaf964a520bb1d21e3,38.97872873893781,-77.02652306106702,Teddy's Roti Shop,Shepherd Park
"Silver Spring, MD",Park,4bb8cf463db7b71328a3219a,38.98433565958996,-77.02656073553081,Jesup Blair Park,Shepherd Park
7980 Georgia Ave,Convenience Store,4bb8f56fb35776b05b72c901,38.9860479,-77.0270676,7-Eleven,Shepherd Park
952 Sligo Ave,Ethiopian Restaurant,546bd291498e0eee72f5c323,38.990345777517014,-77.02595967971399,Ethio Express Grill,Shepherd Park
7995 Georgia Ave (at King St.),Performing Arts Venue,4b4253ecf964a520aad125e3,38.98684175431501,-77.02630689465173,Montgomery College Cultural Arts Center,Shepherd Park
7421 Georgia Ave NW,Liquor Store,4b96d652f964a520e5e734e3,38.980061267262705,-77.0262897047561,Cork 'n Bottle Liquors,Shepherd Park
Philadelphia Ave,Dance Studio,4f174e85e4b02427704aa248,38.989332611756566,-77.02579475928032,Princess Mhoon Dance Institute,Shepherd Park
8040 13th St,Sandwich Place,4bf5c7afbfeac928c6389336,38.987220645353815,-77.02933741944207,Subway,Shepherd Park
7990 Georgia Ave,Hotel,537ba7ad498ebaa259eb3ee6,38.986728,-77.027112,Holiday Inn Express Washington Dc N-Silver Spring,Shepherd Park
6900 Georgia Ave (Daliah St. NW),Donut Shop,4c516d4f9426c928861bbb73,38.979537640692676,-77.02711947078106,Dunkin' Donuts,Shepherd Park
7720 Blair Rd,Fried Chicken Joint,515c82d2f0e417244277b9f9,38.98393411196239,-77.02539255785769,KFC,Shepherd Park
7926 Georgia Ave,Lounge,4f0a6ed8e4b0ad9c2744b53d,38.98576012533105,-77.02675782164845,Nectar Lounge,Shepherd Park
1280 E West Hwy,Video Store,4c1e25a163750f47ff3db967,38.99171161231986,-77.03151111883399,Redbox,Shepherd Park
1280 E West Hwy (at Colesville Rd.),Grocery Store,4aef6d4af964a52057d821e3,38.991920628258704,-77.03153460978695,Giant Food,Shepherd Park
7401 Georgia Ave,Convenience Store,4e9743db1081bcbcedc660a9,38.9796629007608,-77.0259115844964,7-Eleven,Shepherd Park
1133 E West Hwy Unit C,Pizza Place,4f77543ce4b0e0abc44af2b7,38.9891587566117,-77.0277616966594,Papa John's Pizza,Shepherd Park
7600 Takoma Ave,Planetarium,4cf59eb72f015941b3cc58a2,38.98407987181985,-77.0218645687846,MC Science South Building (Planetarium),Shepherd Park
959 Sligo Ave,Italian Restaurant,4bd36f9841b9ef3b303200e6,38.990405751836946,-77.0257995126659,Vicino Ristorante Italiano,Shepherd Park
PO Box 7411,Hotel,4bcf40f20ffdce720551b2c0,38.986554,-77.028537,Takoma Park Quality Inn Washington,Shepherd Park
6900 Georgia Ave,Gym,4c9a73339c663704bdb258fd,38.9766,-77.030078,Walter Reed Gym,Shepherd Park
"Washington, D.C. 20012",Fast Food Restaurant,4c8a532d52a98cfaef6e2be9,38.976661,-77.028758,Subway @ Walter Reed,Shepherd Park
"Washington, DC",Business Service,5a13ce01e4c4590e09bb43a0,38.97614217774691,-77.02768921852112,ADT Security Services,Shepherd Park
Rock Creek Park,Trail,4f92c61de4b0f63924bd95f2,38.981693244749444,-77.0425403890156,Rock Creek Valley Trail,Shepherd Park
Georgia Ave & Dahlia St NW,Bus Station,4d3d6790457cb60cac83f7a4,38.97575850531916,-77.02673435211182,"WMATA Bus Stop #1002836 (70, 71, 79, K1)",Shepherd Park
6400 Chillum Pl NW,Brewery,4e3471636284ea7e10f5bf4d,38.967651481149126,-77.01266726424626,3 Stars Brewing Company,Lamond Riggs
5788 2nd St NE (at Nicholson St NE),Brewery,53a4dfc6498e35d5abb336e7,38.96044381779168,-77.00497751676406,Hellbender Brewing Company,Lamond Riggs
"Washington, D.C.",Food Truck,545536d9498ea31a1f268aac,38.96761872069829,-77.01264288652894,Sloppy Mama's,Lamond Riggs
6224 3rd NW (None),Vegetarian / Vegan Restaurant,4bbb65bf7421a59330c6c440,38.96574691365824,-77.01616821406897,Senbeb Vegetarian Restaurant,Lamond Riggs
6500 New Hampshire Ave,Seafood Restaurant,4c3749b2dfb0e21e2274aca8,38.96938180874344,-77.00065915238463,Mid Atlantic Sea Food,Lamond Riggs
"Washington, D.C.",Burger Joint,5813ebb438fa4b940905126f,38.95860925238621,-77.00146950528861,Five Guys,Lamond Riggs
6214 3rd St NW (at Rittenhouse St NW),Caribbean Restaurant,4d98bb1f9079b1f78b95320a,38.96555920706118,-77.01620873755292,Peaches Kitchen Restaurant & Catering Service,Lamond Riggs
300 Riggs Rd NE (Riggs rd Ne And South Dakota Ave Ne),Big Box Store,5630b2d1498e64f2d584ef71,38.95788995284889,-77.00197685746666,Walmart Supercenter,Lamond Riggs
5911 Blair Road Northwest,Rental Car Location,556cdc73498e976d79196657,38.961688,-77.009803,Avis Car Rental,Lamond Riggs
5911 Blair Road Northwest,Rental Car Location,554e5414498e8688bcbb6ad6,38.961689,-77.009794,Budget Car Rental,Lamond Riggs
6333 New Hampshire Avenue,Smoke Shop,4bf295431cd9d13aa7cded76,38.96682041195636,-77.00120123620098,Shop Rite Liquors,Lamond Riggs
25 Peabody Street NW,Convenience Store,4c421462da3dc928b3efc9b9,38.9630189835163,-77.0106866955758,7-Eleven,Lamond Riggs
318 Riggs Rd Ne (chillum rd),Pet Store,57d71b4e498e4a954a8cf7a5,38.956921,-77.00228,Petco,Lamond Riggs
5801 Riggs Rd,Gas Station,57e81b15498efe862ecdffa0,38.961922343582955,-76.99786931290264,Shell,Lamond Riggs
6200 Eastern Ave NE (Rittenhouse St NE & Eastern Ave NE),Liquor Store,4c595e947b04952109da881f,38.965019160694204,-77.0020023866899,takoma park liquors,Lamond Riggs
6201 Blair Road N.W.,Construction & Landscaping,4f11d9a7e4b0253d4d2f52d6,38.96483,-77.01173,M&M Appliance,Lamond Riggs
6403 Chillum Pl NW,Athletics & Sports,55734652498eedcbaa0f20d6,38.96738937342579,-77.01163624072716,Washington DC Table Tennis Center,Lamond Riggs
"Washington, D.C. 20012",American Restaurant,4fc6c6ee754ad9955e7e352b,38.96876914222709,-77.01095014215262,Cogito Ergo Sauté,Lamond Riggs
220 Riggs Rd NE,Fast Food Restaurant,4e4e0ef3bd4101d0d7a13ac6,38.95685269991578,-77.00275591840267,KFC,Lamond Riggs
"Vienna, VA",Food Truck,4dd2ade8d22d67839c6167e2,38.968120257674144,-77.01251354144682,Top Dog Food Truck,Lamond Riggs
6420 Chillum Pl NW,Automotive Shop,4e491f05aeb70e74f4b67f86,38.967814,-77.01289799999999,Imperial Auto Body of DC,Lamond Riggs
5585 South Dakota Ave NE,Chinese Restaurant,4e458d91483b03d090d41c0c,38.95998863920681,-76.99924650264276,Hunan Chinese Carry-out,Lamond Riggs
"Washington, D.C. 20011",Chinese Restaurant,50512f07e4b054c0f6cdda5a,38.95835,-77.001036,Hunan Shrimp Boat,Lamond Riggs
5581 South Dakota Ave NE,Liquor Store,5c27a18a35d3fc00393f74de,38.958191502747724,-77.00113287372903,Riggs Liquor,Lamond Riggs
300 Riggs Rd NE (at 3rd St NE),Coffee Shop,5a0f7c9769e77b76ce403db7,38.957336,-77.00255,Culture Coffee Too,Lamond Riggs
6960 Maple St NW Ste C (at Carroll St NW),Cycle Studio,5845a9032b04f867253a3291,38.97171618294397,-77.01326216101492,CYCLED!,Lamond Riggs
809 Upshur St NW (btwn 8th & 9th St NW),Pizza Place,576f29da498e091a4ef1bc1c,38.94206438058358,-77.02384024858475,Timber Pizza Company,Petworth
828 Upshur St NW,Japanese Restaurant,581a98e76d881109c942976f,38.941913652256424,-77.02458026263831,Himitsu,Petworth
829 Upshur St NW,Bar,523f7ba5498e0b3dde3552de,38.94206020823616,-77.0244812965393,Petworth Citizen & Reading Room,Petworth
4100 Georgia Ave NW (at Taylor St NW),Grocery Store,4ad3adf8f964a52094e520e3,38.9409576595204,-77.0254664849593,Yes! Organic Market,Petworth
4306 Georgia Ave NW (Georgia & Kansas Ave),Lounge,510079ece4b0d01b4003f7f6,38.9432270587178,-77.02611711759585,Safari DC Restaurant & Lounge,Petworth
4100 Block of 9th St NW (at Upshur St and Georgia Ave),Farmers Market,4c2e693416adc9285dd6bb9c,38.941242824602384,-77.02514934163698,Petworth Farmers Market,Petworth
3911 Georgia Ave NW,New American Restaurant,57686c54498e741bfe23292d,38.93912281471018,-77.02453225851059,Homestead,Petworth
3917 Georgia Ave NW (btwn Randolph & Shepherd St NW),Coffee Shop,4ad51c5cf964a520ee0121e3,38.939183316230334,-77.02454030513763,Qualia Coffee,Petworth
821 Upshur St NW,Mexican Restaurant,58d85e8924ca6a01654768a6,38.94199089789243,-77.0242389206399,Taqueria del Barrio,Petworth
4015 Georgia Ave NW,Sports Bar,544da994498e300a739708ee,38.940288234059274,-77.0247767054491,The Pitch Tavern,Petworth
Illinois Av NW (at Kansas Ave.),Park,4b55ade3f964a52087eb27e3,38.94724353846854,-77.02176417863751,Sherman Circle Park,Petworth
3655 Georgia Ave NW (at Quebec Pl NW),Bar,590b9607a423623a3e0fa1a3,38.93600569263164,-77.02420548810431,Reliable Tavern,Petworth
806 Upshur Ave NW (btwn 8th & 9th St NW),Thrift / Vintage Store,50885ae5e41207dffbf147c7,38.941864749727664,-77.02386726448601,Fia's Fabulous Finds,Petworth
3716 Georgia Ave NW,Thai Restaurant,5953dbdf25ecca2ddfdaa80e,38.936642207937105,-77.02460467815399,Pantry Thai,Petworth
3907 14th St NW,Italian Restaurant,57951f34498ef657afcb48d1,38.93897629428378,-77.03259955159722,Little Coco's,Petworth
3815 Georgia Ave NW,Bar,5849f5006ad73d05c6a22063,38.93812092922753,-77.02447503900162,Ten Tigers Parlour,Petworth
3714 14th St NW,Mexican Restaurant,5879745030ecc623688db025,38.93763143617074,-77.03295064926274,Mezcalero,Petworth
201 Upshur St NW (at 2nd St NW),Burger Joint,55a7cc11498edd3b64caf6c4,38.94223030638643,-77.01368550429486,Slash Run,Petworth
3710 14th St NW (at Spring Rd NW),Mexican Restaurant,54261db9498eabdbcf6c22a5,38.93756279744814,-77.03296475398459,Taqueria Habanero,Petworth
3718 14th St NW (at Quincy St NW),Dive Bar,49ba7902f964a52069531fe3,38.93772292029367,-77.0329812169075,Red Derby,Petworth
3720 14th St NW,Dive Bar,538cfe5d498eb2b43fb9c382,38.93779640328379,-77.03294671467506,Lyman's Tavern,Petworth
3628 Georgia Ave NW (at Otis St NW),Bar,51b39469498e77488f55e430,38.934898249473314,-77.02433108403837,DC Reynolds,Petworth
"Washington, D.C. 20010",Athletics & Sports,4bd9f7c0c79cc9284bd97ce9,38.93638569210138,-77.02658193005239,Raymond Recreation Center,Petworth
4706 14th St NW (btwn Crittenden & Decatur St NW),Coffee Shop,4a881b38f964a5202c0520e3,38.94752275683515,-77.0327948932248,Highlands Cafe,Petworth
3634 Georgia Ave NW (at Princeton Pl NW),Bar,45f140bcf964a520ca431fe3,38.935072319188265,-77.02422577171585,Looking Glass Lounge,Petworth
646 Rock Creek Church Rd NW,Grocery Store,4bd39f0b9854d13aa550fe4d,38.93688612693573,-77.021218469983,Rock Creek Market,Petworth
4300 Arkansas Ave NW (at Upshur St),Pool,4c042852f423a593ea3dd116,38.9443237964672,-77.03149910988044,Upshur Outdoor Pool,Petworth
4710 14th St NW,Diner,4d99e23f744f37040e811158,38.94765181233348,-77.03277959145964,Smokey's Fried Chicken,Petworth
3830 Georgia Ave NW (at Randolph St NW),Grocery Store,4acfe293f964a520aad620e3,38.9384858,-77.0249913,Safeway,Petworth
3830 Georgia Ave NW (in Safeway),Coffee Shop,53b550ba498efbd69a83fd72,38.93856102201026,-77.02485752236218,Starbucks,Petworth
843 Upshur St NW,Boutique,4fb96d1ae4b0514cdfa98ee6,38.94205024918034,-77.0246209530219,Willow,Petworth
3614 Georgia Ave NW,Liquor Store,4c2fe432ed37a59311226803,38.93470690117157,-77.02408341667012,Lions Liquor,Petworth
4532 Georgia Ave NW (at Buchanan St NW),Bakery,4b07fce1f964a520f80123e3,38.945983319685126,-77.0267246102566,Flip It Bakery & Deli,Petworth
850 Quincy St NW (at Georgia Ave NW),Café,5c31e094061b51002c1e3b4a,38.937400453259244,-77.02480911258294,Dunkin',Petworth
Grant Cir. NW (at New Hampshire & Illinois Ave NW),Plaza,4b55abb7f964a52039eb27e3,38.94312206273827,-77.01923489570618,Grant Circle,Petworth
"Washington, D.C.",Gymnastics Gym,54c546d5498e78ed167d88a1,38.94658402538065,-77.03289294447585,Dance Loft on 14,Petworth
3725 Georgia Ave NW,Southern / Soul Food Restaurant,4c5acd50b1aa9c7432790c49,38.937492922150334,-77.02439430815265,EatMore Fried Chicken,Petworth
4231 9th St NW (btwn Upshur & Varnum St NW),Latin American Restaurant,46b17ec6f964a5209b491fe3,38.942595076741746,-77.02489953065026,El Torogoz,Petworth
4205 Georgia Ave NW,Pizza Place,4bd9031267b49c74e47e2214,38.942224,-77.025362,Pizza Hut,Petworth
"Washington, D.C. 20010",Playground,4f3e4d3ce4b0382fc0fdeaae,38.93661855211431,-77.02431149452546,Georgia ave nw,Petworth
3707-3711 14th St (Quincy),Convenience Store,5668c2a7498e6205babe87c9,38.93740371546212,-77.03233212232584,7-Eleven,Petworth
3624 Georgia Ave NW (at Princeton Pl. NW),Pizza Place,4cbfd58d7dc9a093eb3d3bf5,38.93478493094125,-77.02413060613907,Manny & Olga's Pizza,Petworth
3607 Georgia Ave NW (Princeton PL NW),Restaurant,543686cd498e04809d2b8b91,38.934822367120525,-77.02404727638033,EatsPlace,Petworth
200 Upshur St NW (at Rock Creek Church Rd NW),Southern / Soul Food Restaurant,4b3a48b6f964a520c76325e3,38.94215742479215,-77.01365610954007,The Hitching Post,Petworth
4809 Georgia Ave NW,Caribbean Restaurant,52bfa54511d24ad040dc7f10,38.948676,-77.026974,Sandovan Restaurant & Lounge,Petworth
4400 Georgia Ave NW,Coffee Shop,5c61fead65cdf8002cea7abc,38.944033,-77.026187,Büna,Petworth
"Washington, D.C.",Indoor Play Area,58a990782948b344b7315c52,38.939164,-77.021875,Nate's Playroom,Petworth
Arkansas Ave NW (at Allison St NW),Dog Run,4bd33831b221c9b60c2bd9d0,38.944842574890984,-77.03143313713737,Upshur Dog Park,Petworth
488 Shepherd St NW (at 5th St NW),Deli / Bodega,4c855b18c5a9952198109405,38.94001699901158,-77.01894263728286,Bless 7 to 10 Market,Petworth
"Washington, D.C.",Gun Range,575e2063498ebf2f7172f834,38.947207588919774,-77.01763662593518,Petworth Gunshot Central,Petworth
233 Upshur St NW (at 3rd St NW),Deli / Bodega,4c75d95344d395210c71febe,38.94220436969729,-77.01536472495246,J & B Food Market,Petworth
221 Upshur St NW (3rd Street NW),Falafel Restaurant,52fd417c498e9e3bdfba1911,38.94223224239118,-77.01468989467628,House of Falafel,Petworth
693 Otis Pl NW,Recreation Center,4b896304f964a520403132e3,38.93517941678726,-77.02157861048592,Parkview Recreation Center,Petworth
5409 Georgia Ave NW (Kennedy St NW),Bakery,4d65a544e07aa35daeb7a08f,38.955538708745145,-77.02787515435315,Crown Bakery,Brightwood Park
622 Kennedy St NW,Breakfast Spot,4c46fe790f5aa593334c7c76,38.9564304771094,-77.02199447696107,Tony's Place,Brightwood Park
805 Kennedy St NW (8th Street NW),Taco Place,4c2a8d28d1a10f4792a6f664,38.9563654771721,-77.02445867436838,Taqueria Distrito Federal,Brightwood Park
5501 14th St NW (at Colorado Ave NW),Gastropub,59fb8899a2a6ce3c218526ac,38.95663554336358,-77.03319063859641,Moreland's Tavern,Brightwood Park
5504 3rd St NW,Chinese Restaurant,4bf09a1d17880f47a78a2937,38.956773720154146,-77.01613683524211,Twin Dragon Carry Out,Brightwood Park
5332 Georgia Ave NW,Cosmetics Shop,4c93a37bf7cfa1cdd347ac15,38.954950994759116,-77.02802801742531,A Natural Motion,Brightwood Park
711 Kennedy St NW (at 7th St NW),Bar,5924f207db2aeb6a896ec3c5,38.95689841288147,-77.02284700046556,ANXO Cidery & Tasting Room,Brightwood Park
Illinois Av NW (at Kansas Ave.),Park,4b55ade3f964a52087eb27e3,38.94724353846854,-77.02176417863751,Sherman Circle Park,Brightwood Park
5933 Georgia Ave NW (Peabody),Southern / Soul Food Restaurant,5a0ce6c38a6f175e86037c11,38.962112,-77.027405,Oohh's & Aahh's,Brightwood Park
5828 Georgia Ave NW,American Restaurant,52c8457d498eaad41f2a1469,38.960881339891046,-77.02791824822175,Simple Bar and Grill,Brightwood Park
6101 Georgia Ave NW (at Quackenbos St NW),Thrift / Vintage Store,4bf435c7ff90c9b68bf95428,38.96407084037698,-77.02773934975839,Georgia Avenue Thrift Store,Brightwood Park
5200 Georgia Ave NW (at Hamilton),Fried Chicken Joint,4aa05838f964a5203e3f20e3,38.95309260599168,-77.02794290851068,Popeyes,Brightwood Park
5600 Georgia Ave NW (at Madison St. NW),Drugstore,4ae0f26af964a520ef8321e3,38.9578123,-77.0285079,Rite Aid,Brightwood Park
308 Kennedy St NW,Caribbean Restaurant,4c4b92e9712ac928e85e0e6d,38.95642456622145,-77.01653293786232,Andrene's Caribbean & Soul Food,Brightwood Park
5227 Georgia Ave NW,Pharmacy,4bfffb60ca1920a1789eed81,38.953848431387904,-77.02742719329825,CVS pharmacy,Brightwood Park
5924 Georgia Ave NW (Rock Creek Ford Road NW),Pizza Place,53eb90b3498eeef7ebf6c960,38.9620589781797,-77.02801147380988,Little Caesars,Brightwood Park
4809 Georgia Ave NW,Caribbean Restaurant,52bfa54511d24ad040dc7f10,38.948676,-77.026974,Sandovan Restaurant & Lounge,Brightwood Park
5929 Georgia Ave Nw,Big Box Store,52921ccd498e26f123ad0323,38.96194498598036,-77.02741900629617,Walmart Supercenter,Brightwood Park
5500 Colorado Ave. NW,Café,5603690e498ea3075ca503aa,38.9559781,-77.0334484,Gold Coast Cafe,Brightwood Park
1224 Peabody St NW,Fast Food Restaurant,4bfe7f5f4cf820a13ef1edf4,38.96247026984031,-77.02822376282224,McDonald's,Brightwood Park
6230 Georgia Avenue NW (Sheridan Street),Café,51c8e2aa498ed711013987f0,38.9659444665234,-77.02771383329767,Wapa Café Boutique,Brightwood
6303 Georgia Ave NW (at Sheridan St NW),Mexican Restaurant,4c1683b9cd4bc9b69d874eeb,38.96634786452628,-77.02740826549824,Haydee's Restaurant,Brightwood
6101 Georgia Ave NW (at Quackenbos St NW),Thrift / Vintage Store,4bf435c7ff90c9b68bf95428,38.96407084037698,-77.02773934975839,Georgia Avenue Thrift Store,Brightwood
1201 Tuckerman St NW,Sandwich Place,4c1130acf1b6a5930a1e7d27,38.967269192013845,-77.02760122025526,Subway,Brightwood
300 Van Buren St NW (at 5th St NW),Pool,4beb3586a9900f47c58a1740,38.96868420048595,-77.01798327951451,Takoma Aquatic Center,Brightwood
6104 Georgia Ave NW (at Quackenbos St NW),Historic Site,4b5c9008f964a520c03629e3,38.96421608309354,-77.0292180776596,Fort Stevens,Brightwood
5933 Georgia Ave NW (Peabody),Southern / Soul Food Restaurant,5a0ce6c38a6f175e86037c11,38.962112,-77.027405,Oohh's & Aahh's,Brightwood
6431 Georgia Ave NW,Mobile Phone Shop,597207b0e075506cb44a09da,38.968408977423394,-77.02718027316678,T-Mobile,Brightwood
6224 3rd NW (None),Vegetarian / Vegan Restaurant,4bbb65bf7421a59330c6c440,38.96574691365824,-77.01616821406897,Senbeb Vegetarian Restaurant,Brightwood
6431 Georgia Ave NW (Underwood St NW),Shoe Store,4ba64a0cf964a520d24239e3,38.96828205694173,-77.02716597864206,Payless ShoeSource,Brightwood
5828 Georgia Ave NW,American Restaurant,52c8457d498eaad41f2a1469,38.960881339891046,-77.02791824822175,Simple Bar and Grill,Brightwood
6214 3rd St NW (at Rittenhouse St NW),Caribbean Restaurant,4d98bb1f9079b1f78b95320a,38.96555920706118,-77.01620873755292,Peaches Kitchen Restaurant & Catering Service,Brightwood
6217 Georgia Ave Nw,Discount Store,4c38a8153849c9285fd6bfb1,38.965756269246185,-77.02764551077063,Family Dollar,Brightwood
6900 Georgia Ave NW,Sandwich Place,4e4dc503bd41b76bef92d540,38.969225243502486,-77.02356202658476,Subway,Brightwood
1211 Tuckerman St NW,Pizza Place,4c0d7d9bd64c0f4752cf265d,38.96764216483877,-77.02799995245186,Domino's Pizza,Brightwood
6500 Piney Branch Rd NW (at Safeway),Coffee Shop,4d109245cf09a143a0c52c0f,38.96920729845722,-77.02648691718396,Starbucks,Brightwood
5600 Georgia Ave NW (at Madison St. NW),Drugstore,4ae0f26af964a520ef8321e3,38.9578123,-77.0285079,Rite Aid,Brightwood
5924 Georgia Ave NW (Rock Creek Ford Road NW),Pizza Place,53eb90b3498eeef7ebf6c960,38.9620589781797,-77.02801147380988,Little Caesars,Brightwood
5929 Georgia Ave Nw,Big Box Store,52921ccd498e26f123ad0323,38.96194498598036,-77.02741900629617,Walmart Supercenter,Brightwood
6514 Georgia Ave NW (at Van Buren St NW),Pharmacy,4b40f1bff964a520f1bd25e3,38.969642069163854,-77.02745711628451,CVS pharmacy,Brightwood
Georgia Avenue And Butternut St NW,Bus Stop,4e09d98514959022c8a66670,38.96851680806312,-77.02752789631542,"WMATA Bus Stop #1002817 (52, 53, 54, 70, 71)",Brightwood
7245 Georgia Ave NW,Fast Food Restaurant,50b2b6e0e4b0cf8d1de942c2,38.96817151059062,-77.02466012961757,McDowell's,Brightwood
1224 Peabody St NW,Fast Food Restaurant,4bfe7f5f4cf820a13ef1edf4,38.96247026984031,-77.02822376282224,McDonald's,Brightwood
"Washington, D.C.",Gym / Fitness Center,5150895ee4b08c23e5a690db,38.96202,-77.028018,Fitness Factory,Brightwood
5764 Georgia Ave Nw,Pizza Place,4d8cab39fe8d41bd003ed705,38.960113178047585,-77.0283209248015,Papa John's Pizza,Brightwood
300 Van Buren St NW,Gym,4e529be4ae6054e936244170,38.96895410256848,-77.01785031740084,Takoma Fitness Center,Brightwood
"Washington, D.C.",Bus Stop,53eb603c498ea3342ca16c17,38.96991729736328,-77.0362319946289,WMATA Bus Stop #1002896,Brightwood
3rd St. NW (Whittier St. NW),Tennis Court,51879682498e8f6b34fd8c54,38.96973078353844,-77.01719799490418,Takoma Recreation Center Tennis Courts,Brightwood
"Washington, D.C. 20011",Recreation Center,4ca35945750ca09387041867,38.9700495127447,-77.0171923714191,Takoma Recreation Center,Brightwood
"Washington, D.C.",Park,517562e3e4b00121023d6ef3,38.96990477263416,-77.01707427817252,4th & Blair Triangle Park,Brightwood
1327 Van Buren St NW (13th St),Park,4bc796120050b7138dfeb83b,38.96900366533302,-77.03768277845467,Fort Stevens Recreation Center,Brightwood
"Washington, D.C.",Trail,4f5ce0c3e4b0b28dd5354b1f,38.96906504613284,-77.03768736306392,Rock Creek Whittier Trail,Brightwood
6349 31st Pl NW,BBQ Joint,4dd9834bfa76ad96d157d7d4,38.974052,-77.059632,The Sala Deck,Barnaby Woods
Aberfoyle St NW and Western Ave NW,Park,4db201964b22ba776d90865f,38.97623775449256,-77.05768211921841,Pinehurst Tributary Park,Barnaby Woods
6217 30th St NW,Construction & Landscaping,57d03f36498e84050476d164,38.97186,-77.05871,Landis Garden Design,Barnaby Woods
"Washington, D.C. 20015",Trail,502fe7dfe4b045d7901e63cb,38.97618333694134,-77.05221037047845,Rock Creek Western Ridge Trail,Barnaby Woods
3315 Shepherd St.,Playground,4bcf4c8a9854d13a64c9f54d,38.98049216028955,-77.06536545439309,Chevy Chase Park,Barnaby Woods
"Washington, D.C. 20015",Trail,509e9626e4b047c857b3b7b2,38.975177077741975,-77.05057439898086,Pinehurst Branch Trail,Barnaby Woods
7209 Lenhart Dr,Construction & Landscaping,585cf271d98f364405d3a0fb,38.98285,-77.06361,"Meyer Electrical Services, Inc.",Barnaby Woods
903 Chillum Rd (Riggs Rd.),Seafood Restaurant,4bcd03ebfb84c9b6f387213e,38.961942171647976,-76.9940336271018,Ruff N Ready Crab House,Queens Chapel
"Washington, D.C.",Burger Joint,5813ebb438fa4b940905126f,38.95860925238621,-77.00146950528861,Five Guys,Queens Chapel
300 Riggs Rd NE (Riggs rd Ne And South Dakota Ave Ne),Big Box Store,5630b2d1498e64f2d584ef71,38.95788995284889,-77.00197685746666,Walmart Supercenter,Queens Chapel
5788 2nd St NE (at Nicholson St NE),Brewery,53a4dfc6498e35d5abb336e7,38.96044381779168,-77.00497751676406,Hellbender Brewing Company,Queens Chapel
5505 S Dakota Ave (Kennedy St NE),Convenience Store,4dafadac0cb6ead7fdd47e58,38.956019508663,-77.000576108694,7-Eleven,Queens Chapel
318 Riggs Rd Ne (chillum rd),Pet Store,57d71b4e498e4a954a8cf7a5,38.956921,-77.00228,Petco,Queens Chapel
900 Chillum Rd,Caribbean Restaurant,4be4915bcf200f477a25123c,38.962097289838475,-76.99340556417515,Junction international Restaurant,Queens Chapel
1331 Chillum Rd,Convenience Store,500eeb106de406feaec6a65c,38.9578160230934,-76.986550390717,7-Eleven,Queens Chapel
5210 3rd Street NE,Convenience Store,4b926db4f964a520def833e3,38.952847146223434,-77.00191648928018,7-Eleven,Queens Chapel
5801 Riggs Rd,Gas Station,57e81b15498efe862ecdffa0,38.961922343582955,-76.99786931290264,Shell,Queens Chapel
1331 Chillum Rd,Video Store,4e31c4302fb6ede816e37d4d,38.95797232410553,-76.98655781388612,Redbox,Queens Chapel
220 Riggs Rd NE,Fast Food Restaurant,4e4e0ef3bd4101d0d7a13ac6,38.95685269991578,-77.00275591840267,KFC,Queens Chapel
5815 Eastern Ave,Grocery Store,4bd04caf77b29c74346f8a82,38.96132757663797,-76.99494481086731,Giant Food,Queens Chapel
4950 South Dakota Ave NE,Fast Food Restaurant,4c0ab878a1b32d7fa2dc99f0,38.94949,-76.993315,McDonald's,Queens Chapel
5621 Sargent Rd (at Chillum Rd),Pharmacy,4c01a95e716bc9b6a049bc55,38.95860067425852,-76.98652399759142,CVS pharmacy,Queens Chapel
"Washington, D.C.",Liquor Store,4d3f54c6cb84b60ce0227cab,38.95608170129163,-77.00066382224863,Liquor Store,Queens Chapel
400 Galloway St NE,Gym / Fitness Center,5c067a37345cbe002ca7cc99,38.952892,-76.998678,The Modern Gym,Queens Chapel
5581 South Dakota Ave NE,Liquor Store,5c27a18a35d3fc00393f74de,38.958191502747724,-77.00113287372903,Riggs Liquor,Queens Chapel
"Washington, D.C. 20011",Chinese Restaurant,50512f07e4b054c0f6cdda5a,38.95835,-77.001036,Hunan Shrimp Boat,Queens Chapel
5585 South Dakota Ave NE,Chinese Restaurant,4e458d91483b03d090d41c0c,38.95998863920681,-76.99924650264276,Hunan Chinese Carry-out,Queens Chapel
300 Riggs Rd NE (at 3rd St NE),Coffee Shop,5a0f7c9769e77b76ce403db7,38.957336,-77.00255,Culture Coffee Too,Queens Chapel
"Washington, D.C.",Gym,5204f2f0498e6a0bf5e3b06c,38.953047268116244,-77.001535578077,Aventine Fort Totten Gym,Queens Chapel
208 Riggs Rd NE (at S Dakota Ave NE),Fast Food Restaurant,4b799325f964a52093022fe3,38.95628684132244,-77.00288256907635,Rex Carryout,Queens Chapel
5210 3rd St NE,Gym,4f9f1673e4b0acee92b65679,38.95297449634135,-77.00152995386588,Aventine,Queens Chapel
300 Galloway St. NE,Bus Station,4f0b72d4e4b0ed41c4cdf34c,38.95226665305134,-77.00139810750719,Fort Totten Bus Bay F,Queens Chapel
905 Chillum Rd,Chinese Restaurant,4bf5e8a45e800f47d48ae6d4,38.96176814944814,-76.99385324477574,China Sub Shop,Queens Chapel
Fort Totten Station & Bus Bay K,Bus Station,4e611e69e4cdf1e2beb8d188,38.95263209242621,-77.00307830836738,"WMATA Bus Stop #1003435 (60, 64, E2, E3, E4, K2, K6, R1, R2, R5)",Queens Chapel
D.C. 20017,Bus Station,4eea494c7ee58961e582a087,38.951751003823716,-77.00221048151737,64 Bus Stop Fort Totten,Queens Chapel
530 Galloway St NE,Metro Station,4ab4fb23f964a520e17120e3,38.951799647152846,-77.0026160286759,Fort Totten Metro Station,Queens Chapel
"Washington, D.C.",Bus Station,5162f83ae4b00a4bdbe5a115,38.952209,-77.003252,Fort Totten Bus Bay A,Queens Chapel
600 Emerson St NE,Park,4d0c129495c1a1cd6720fafe,38.9497574855761,-76.9994238527585,Emerson Park,Queens Chapel
5904 Riggs Rd,Spanish Restaurant,4c8a66ae770fb60c513bd2c3,38.962644,-76.993458,Mi Patria Restaurant,Queens Chapel
5024 Eastern Ave NE,Construction & Landscaping,5549731f498edcf8a44d6124,38.953351,-76.986979,"Lawn Essentials, ETC.",Queens Chapel
1338-1498 Maryland 501,Convenience Store,4dd96596d4c05d509719a8ae,38.95804406742943,-76.98597801472141,Maxway,Queens Chapel
1100 Michigan Ave NE (at Perry St NE),Recreation Center,4b4f8ab4f964a520b10a27e3,38.9381366206422,-76.992469011693,Turkey Thicket Recreation Center,North Michigan Park
1100 Michigan Ave NE (Quick St NE),Gym Pool,4dbc34421e72b351caac2204,38.942202399615816,-76.99228957401411,Turkey Thicket Aquatic Center,North Michigan Park
3908 12th Street NE (Randolph Street),Latin American Restaurant,4b2c3dd8f964a52078c424e3,38.93764465112451,-76.99066233474821,San Antonio Bar & Grill,North Michigan Park
3606 John McCormack Dr NE (at Taylor St),College Rec Center,4c6869cd6b25e21e76a9192f,38.94239692429365,-76.99920739274768,Dufour Center,North Michigan Park
Hawaii Avenue,Sandwich Place,4ffdf965e4b0319bcd0d0c1d,38.94118296862425,-77.00068395386984,Subway,North Michigan Park
4950 South Dakota Ave NE,Fast Food Restaurant,4c0ab878a1b32d7fa2dc99f0,38.94949,-76.993315,McDonald's,North Michigan Park
Galloway St NE (Sargent Rd NE),Park,4e21e2a0fa761d6710810f8c,38.94607458800437,-76.98997470345213,Fort Circle Park,North Michigan Park
333 Hawaii NE,Convenience Store,4b914a05f964a5204fb033e3,38.9410562,-77.000587,7-Eleven,North Michigan Park
600 Emerson St NE,Park,4d0c129495c1a1cd6720fafe,38.9497574855761,-76.9994238527585,Emerson Park,North Michigan Park
1333 Emerson St,Park,4bb12b03f964a52016803ce3,38.949864563736575,-76.98673630655655,North Michigan Park Recreation Center,North Michigan Park
333 Hawaii Ave NE,Sandwich Place,4dad88e21e72b2444e431a64,38.94114059905927,-77.00034886376544,Hawaii Ave Deli,North Michigan Park
333 Hawaii Ave,Seafood Restaurant,4d23168d8629224bba7e2887,38.94129813228552,-77.00054539146828,Heights Seafood & Soulfood Deli,North Michigan Park
333 Hawaii Ave NE,Liquor Store,4b6357f5f964a5206e732ae3,38.941270470645556,-77.00066118958759,university liquor,North Michigan Park
333 Hawaii Ave NE,Chinese Restaurant,4b8af9a2f964a520268c32e3,38.94134338035955,-77.00076453141904,Hunan Delight,North Michigan Park
400 Taylor St NE,Gym,4d852c30e83fa143e9da74a1,38.94133682067022,-77.00155166589238,Brookland Ridge Fitness Center,North Michigan Park
Taylor St,Bus Stop,4dc7e9a0e4cd169dc68707c4,38.94087364147884,-77.00212611879245,"Bus Stop 1002314 (H8,9)",North Michigan Park
400 Galloway St NE,Gym / Fitness Center,5c067a37345cbe002ca7cc99,38.952892,-76.998678,The Modern Gym,North Michigan Park
"Washington, D.C. 20011",Bus Stop,58e632c0b38b3208df4de571,38.9449869897544,-77.00504527364258,WMATA Bus Stop #1002418,North Michigan Park
5210 South Dakota St NE,Mobile Phone Shop,5c42ba534f0e58002cbcf25b,38.95366,-76.99857,T-Mobile,North Michigan Park
300 Galloway St. NE,Bus Station,4f0b72d4e4b0ed41c4cdf34c,38.95226665305134,-77.00139810750719,Fort Totten Bus Bay F,North Michigan Park
1100 Michigan Ave NE (at Perry St NE),Recreation Center,4b4f8ab4f964a520b10a27e3,38.9381366206422,-76.992469011693,Turkey Thicket Recreation Center,University Heights
666 Monroe St NE (at 7th St NE),Pizza Place,5352a8ee498e17626b129223,38.93258208733208,-76.99669629335403,&pizza,University Heights
625 Monroe St NE,American Restaurant,54a1a65d498e5892fbc39aad,38.93211680686868,-76.99764043092728,Busboys and Poets,University Heights
716 Monroe St NE,Taco Place,59a64dadf62f2b01784bc6db,38.93260243615055,-76.9948897976222,Fox Loves Taco,University Heights
3523 12th St NE,American Restaurant,53ab5a71498e6ff2262cd7f3,38.9332309711327,-76.99085712432861,Steel Plate,University Heights
3225 8th St NE (at Kearny St),Dance Studio,4b401a74f964a5209db525e3,38.93036964576401,-76.99477998035658,Dance Place,University Heights
3908 12th Street NE (Randolph Street),Latin American Restaurant,4b2c3dd8f964a52078c424e3,38.93764465112451,-76.99066233474821,San Antonio Bar & Grill,University Heights
620 Michigan Ave NE (at Pryzbyla University Ctr),Coffee Shop,4fc9457dd4f24895b44679a4,38.9354956,-76.9982398,Starbucks,University Heights
620 Michigan Ave Ne,Fast Food Restaurant,4e4e03d4bd4101d0d7a04588,38.935476,-76.998198,Chick-fil-A,University Heights
655 Michigan Ave NE,Coffee Shop,5840abaa4988da5a47188903,38.93248352520896,-76.99717183295323,Starbucks Reserve,University Heights
3809 12th St NE,Grocery Store,4b66078ef964a5206f0f2be3,38.93691874899584,-76.99058918009719,Yes! Organic Market,University Heights
3740 12th St NE,Vietnamese Restaurant,580a5a3e38facd4bcf561c7b,38.93577112294572,-76.9911754311046,Pho 12,University Heights
3514 12th St NE (at Monroe St NE),Gastropub,538a80ca498ee9aa7b7aa0a0,38.933003449467655,-76.99112998036232,Smith Public Trust,University Heights
3629 12th St. NE (12th between Newton and Otis),Ethiopian Restaurant,51bf1415abd807f251feac45,38.93442008577481,-76.9911318072535,Askale Cafe,University Heights
"655 Michigan Avenue NE, Ste B-4",Sandwich Place,52d1a5d5498ecf81b0989f28,38.932545,-76.996362,Potbelly Sandwich Shop,University Heights
3513 12th St NE (Monroe Ave NE),Breakfast Spot,4ae46e0af964a5208d9a21e3,38.93290217898865,-76.99108184156633,Murry & Paul's Restaurant,University Heights
716 Monroe St NE,Bar,53ef5f6f498ea6fcd9783027,38.9325591363494,-76.99516206979752,Brookland Pint,University Heights
655 Michigan Ave NE (at Monroe St NE),Burger Joint,5ab58a7b9ef8ef02d9098da0,38.932063393545356,-76.99700651373422,BGR Burgers Grilled Right,University Heights
3700 10th St NE,Rental Car Location,4c3cb6fa7c1ee21ee0f48c71,38.93559611275772,-76.99346382917611,Enterprise Rent-A-Car,University Heights
"625 Monroe St NE, Ste A8 (at 7th St NE)",Mexican Restaurant,565b804f498e44c8a9e389bd,38.93206303959848,-76.99645105759248,Chipotle Mexican Grill,University Heights
1100 Michigan Ave NE (Quick St NE),Gym Pool,4dbc34421e72b351caac2204,38.942202399615816,-76.99228957401411,Turkey Thicket Aquatic Center,University Heights
3305 8th St NE (btwn Kearny & Lawrence),Performing Arts Venue,4e177471cc3ff2757ef046ee,38.93065087468478,-76.99451021847679,Brookland Artspace Lofts,University Heights
"Washington, D.C.",Art Gallery,523e3791498ec597ddb7746a,38.93209951374434,-76.99477052792831,Edgewood Arts Building,University Heights
3504 12th St NE (at Monroe St.),Sandwich Place,4bbe108dc6a2ef3ba83addbd,38.93278658087088,-76.99113827302453,Subway,University Heights
3507 12th St NE (Monroe Street),Spa,4c3209b83896e21e29d5e790,38.93282351543473,-76.99090184180693,Nails Etc,University Heights
"Washington, D.C.",Art Gallery,5298ce73498e5adec44bc14c,38.93306441982879,-76.9947704681887,Bookland,University Heights
3520 12th St NE (at Monroe St),Martial Arts Dojo,4e4c49d7b0fb57f6f21ca361,38.93306308552663,-76.99111104311757,Northeast Taekwondo,University Heights
3606 John McCormack Dr NE (at Taylor St),College Rec Center,4c6869cd6b25e21e76a9192f,38.94239692429365,-76.99920739274768,Dufour Center,University Heights
620 Michigan Ave NE,College Bookstore,4c7c21e997028cfa22f2e2fe,38.93514297667169,-76.99821162391366,CUA Bookstore,University Heights
3528 12th St NE (at Newton Street NE),Ice Cream Shop,4ae46e9ff964a5208f9a21e3,38.933256797024825,-76.99114320965832,Brookland Grill,University Heights
Hawaii Avenue,Sandwich Place,4ffdf965e4b0319bcd0d0c1d,38.94118296862425,-77.00068395386984,Subway,University Heights
Perry St. and 14th St. NE,Park,4c66b8a8ebfcb713c3001327,38.937658343295446,-76.98435688364384,Fort Bunker Hill Park,University Heights
3301 12th St NE (at Kearney St NE),Indian Restaurant,5a494b81e2d4aa3d7ded35d0,38.93067835580079,-76.9908387895498,Masala Story,University Heights
625 Monroe St. N.E. (Michigan Ave N.E.),Bookstore,53ca5ce8498e6db96d66275b,38.93240592158114,-76.99707822064033,Barnes & Noble,University Heights
3601 12th St NE (at Newton St NE),Pharmacy,4b6c65abf964a520b0362ce3,38.93369713265663,-76.99095048503438,CVS pharmacy,University Heights
333 Hawaii NE,Convenience Store,4b914a05f964a5204fb033e3,38.9410562,-77.000587,7-Eleven,University Heights
3515 12th St NE,Spa,4ba51ad7f964a520cfdd38e3,38.93301913907001,-76.99104022613403,Nail Spot and Spa,University Heights
3740 12th St NE,Bar,4db738d36e8174e2e9bd4c75,38.93580786221897,-76.99112181728526,Bcafe,University Heights
"Washington, D.C.",College Arts Building,4c3b903362f1c92816b98f53,38.936992088394256,-77.00185369087995,Hartke Theater,University Heights
400 Taylor St NE,Gym,4d852c30e83fa143e9da74a1,38.94133682067022,-77.00155166589238,Brookland Ridge Fitness Center,University Heights
Taylor St,Bus Stop,4dc7e9a0e4cd169dc68707c4,38.94087364147884,-77.00212611879245,"Bus Stop 1002314 (H8,9)",University Heights
3600 12th St NE,Food & Drink Shop,4b707b39f964a520261d2de3,38.933456,-76.991029,Newton Foodmart,University Heights
901 Monroe St NE,Seafood Restaurant,40b13b00f964a52084f41ee3,38.93243,-76.993552,Island Jim's Crab Shack & Tiki Bar,University Heights
3407 8th St NE,Pilates Studio,4be575f72457a5936f78ab15,38.93162719857202,-76.99461572673391,Excel Pilates DC,University Heights
400 Michigan Ave,Bookstore,4d791254a56e3704f6107667,38.93230000307385,-77.000463,National Shrine Giftshop,University Heights
400 Michigan Ave NE,Bookstore,4d1e5629b69c6dcb67b35c95,38.931797692730164,-77.00050634310911,Shrine Book Store,University Heights
"Washington, D.C.",Park,57dd49ea498ead9191d56709,38.93060340239158,-76.99448566932692,8th Street Arts Park,University Heights
3727 14th St NE,Boarding House,4dd0299efa7664b7c6d2ae31,38.935937304897145,-76.9858685065091,Ronald McDonald House,University Heights
3903 12th St NE,Liquor Store,4c408368ce54e21ec199091a,38.937667971490555,-76.98439122952901,Whelan Liquors,University Heights
1601 Rhode Island Ave NE (at 16th Pl NE),Brewery,56226fd5498ed9b3701282d6,38.92612422246211,-76.98172688484192,The Public Option,Brookland
3523 12th St NE,American Restaurant,53ab5a71498e6ff2262cd7f3,38.9332309711327,-76.99085712432861,Steel Plate,Brookland
3126 12th St NE (at Jackson St NE),American Restaurant,524c4ff98bbdd710122a6c64,38.929443219168014,-76.99093768327724,Brookland's Finest Bar & Kitchen,Brookland
2711 12th St NE (at Evarts St NE),Pizza Place,4eb2b5c2490126a57058105a,38.92490143936268,-76.99019998311996,Menomalé Pizza Napoletana,Brookland
3225 8th St NE (at Kearny St),Dance Studio,4b401a74f964a5209db525e3,38.93036964576401,-76.99477998035658,Dance Place,Brookland
920 Girard St NE (at 9th St NE),Brewery,5660db94498ef50714c3194b,38.92667718059501,-76.9930699467659,Right Proper Brewing Production House,Brookland
5149 Frolich Ln (Kenilworth),Design Studio,4d54bbd9fb65236ab5bff1b3,38.92399902090876,-76.99078873538247,House Studio,Brookland
3000 12th St NE (at Hamlin St NE),Wine Bar,5a1b746c35811b7a2f1a1cca,38.92774128028385,-76.99081158206867,Primrose,Brookland
3514 12th St NE (at Monroe St NE),Gastropub,538a80ca498ee9aa7b7aa0a0,38.933003449467655,-76.99112998036232,Smith Public Trust,Brookland
2208 Rhode Island Ave NE,Sandwich Place,4b589ad5f964a520cf6028e3,38.930482957314695,-76.97368188972352,Carl's Subs,Brookland
2300 Rhode Island NE,Coffee Shop,51ca1d70498e8043d40fd959,38.93055962279985,-76.97327128403894,Zeke's Coffee of DC,Brookland
716 Monroe St NE,Taco Place,59a64dadf62f2b01784bc6db,38.93260243615055,-76.9948897976222,Fox Loves Taco,Brookland
3513 12th St NE (Monroe Ave NE),Breakfast Spot,4ae46e0af964a5208d9a21e3,38.93290217898865,-76.99108184156633,Murry & Paul's Restaurant,Brookland
2214 Rhode Island Ave NE,Japanese Restaurant,5a6d2a8060d11b2a4c3c9926,38.93053394166724,-76.97350225721746,Momo Yakitori,Brookland
3629 12th St. NE (12th between Newton and Otis),Ethiopian Restaurant,51bf1415abd807f251feac45,38.93442008577481,-76.9911318072535,Askale Cafe,Brookland
3504 12th St NE (at Monroe St.),Sandwich Place,4bbe108dc6a2ef3ba83addbd,38.93278658087088,-76.99113827302453,Subway,Brookland
3507 12th St NE (Monroe Street),Spa,4c3209b83896e21e29d5e790,38.93282351543473,-76.99090184180693,Nails Etc,Brookland
2006 Rhode Island Ave NE,Grocery Store,53ff9080498eff48ab0af0c8,38.92938885797076,-76.9757844427538,Good Food Markets,Brookland
3809 12th St NE,Grocery Store,4b66078ef964a5206f0f2be3,38.93691874899584,-76.99058918009719,Yes! Organic Market,Brookland
3908 12th Street NE (Randolph Street),Latin American Restaurant,4b2c3dd8f964a52078c424e3,38.93764465112451,-76.99066233474821,San Antonio Bar & Grill,Brookland
3740 12th St NE,Vietnamese Restaurant,580a5a3e38facd4bcf561c7b,38.93577112294572,-76.9911754311046,Pho 12,Brookland
3305 8th St NE (btwn Kearny & Lawrence),Performing Arts Venue,4e177471cc3ff2757ef046ee,38.93065087468478,-76.99451021847679,Brookland Artspace Lofts,Brookland
3520 12th St NE (at Monroe St),Martial Arts Dojo,4e4c49d7b0fb57f6f21ca361,38.93306308552663,-76.99111104311757,Northeast Taekwondo,Brookland
1513 Rhode Island Ave NE (Franklin),Liquor Store,4bb78cfe53649c74bfdb45fb,38.92582614907503,-76.98233146078893,Good Ole Reliable,Brookland
2800 10th St NE (at Franklin St NE),Food Court,5a3abc5fdff81536852619bb,38.92577203401797,-76.99265973183559,Tastemakers,Brookland
3528 12th St NE (at Newton Street NE),Ice Cream Shop,4ae46e9ff964a5208f9a21e3,38.933256797024825,-76.99114320965832,Brookland Grill,Brookland
716 Monroe St NE,Bar,53ef5f6f498ea6fcd9783027,38.9325591363494,-76.99516206979752,Brookland Pint,Brookland
"Washington, D.C.",Art Gallery,523e3791498ec597ddb7746a,38.93209951374434,-76.99477052792831,Edgewood Arts Building,Brookland
3000 12th Street NE (Hamlin St.),Latin American Restaurant,4cbf179097bc721eab7c8367,38.92772527830321,-76.99087476995281,Silvestre Cafe,Brookland
Perry St. and 14th St. NE,Park,4c66b8a8ebfcb713c3001327,38.937658343295446,-76.98435688364384,Fort Bunker Hill Park,Brookland
3301 12th St NE (at Kearney St NE),Indian Restaurant,5a494b81e2d4aa3d7ded35d0,38.93067835580079,-76.9908387895498,Masala Story,Brookland
"Washington, D.C.",Art Gallery,5298ce73498e5adec44bc14c,38.93306441982879,-76.9947704681887,Bookland,Brookland
3700 10th St NE,Rental Car Location,4c3cb6fa7c1ee21ee0f48c71,38.93559611275772,-76.99346382917611,Enterprise Rent-A-Car,Brookland
2305 Rhode Island Ave N,Discount Store,4d4ee3e78975a35d3c5813a8,38.930274046615835,-76.97338900307403,Family Dollar,Brookland
1401 Rhode Island Ave NE,Drugstore,4c60802554ac0f47afbbb521,38.924914,-76.983746,Rite Aid,Brookland
1348 Brentwood Place Ne,Pizza Place,4d599d8b7e223704fa5ab373,38.92474680209926,-76.98640011500783,Papa John's Pizza,Brookland
3601 12th St NE (at Newton St NE),Pharmacy,4b6c65abf964a520b0362ce3,38.93369713265663,-76.99095048503438,CVS pharmacy,Brookland
3515 12th St NE,Spa,4ba51ad7f964a520cfdd38e3,38.93301913907001,-76.99104022613403,Nail Spot and Spa,Brookland
3727 14th St NE,Boarding House,4dd0299efa7664b7c6d2ae31,38.935937304897145,-76.9858685065091,Ronald McDonald House,Brookland
1731 Rhode Island Avenue NE,Dance Studio,4eed1bcc30f824cfc499a886,38.927820610979595,-76.97899727541183,DC Dragon Martial Arts & Dance Center,Brookland
3600 12th St NE,Food & Drink Shop,4b707b39f964a520261d2de3,38.933456,-76.991029,Newton Foodmart,Brookland
3501 Perry Street,Art Gallery,54d570db498eb2f396a38609,38.92548581110838,-76.9838348972126,ReCreative Spaces,Brookland
3903 12th St NE,Liquor Store,4c408368ce54e21ec199091a,38.937667971490555,-76.98439122952901,Whelan Liquors,Brookland
3740 12th St NE,Bar,4db738d36e8174e2e9bd4c75,38.93580786221897,-76.99112181728526,Bcafe,Brookland
10th St NE (at Monroe St NE),Bike Rental / Bike Share,4f2d467ae4b00ef1a4e60746,38.932639944556946,-76.99302022424546,Capital Bikeshare - 10th & Monroe St NE,Brookland
3742 12th St NE,Bed & Breakfast,4d2e019fe043548192f5aced,38.935835,-76.991162,The Brookland Inn,Brookland
18th & Perry Street NW,Park,4e751997aeb780be0a137f2a,38.935580178561516,-76.97738281699372,Taft Rec Center,Brookland
"Washington, D.C.",Park,5376628311d2f391aa1bbf88,38.93551621811796,-76.97716905434461,Dwight A. Mosley Sports Complex,Brookland
"Washington, D.C. 20017",Tennis Court,4ed27eda6da162f1c0fd5207,38.93769389356377,-76.98048795843208,Turkey Thicket Tennis Center,Brookland
"Washington, D.C. 20018",Intersection,50644466e4b05ef2f302c4af,38.924284995611025,-76.98532552099834,Rhode Island Ave & Montana Ave,Brookland
"Washington, D.C. 20018",Clothing Store,57700eaf498e9540820ffb9d,38.929543,-76.975342,The Museum,Brookland
2801 12th St NE (at Franklin St. NE),Chinese Restaurant,4b733ce3f964a520a1a32de3,38.9256062536159,-76.99030350961617,Sammy Carry-Out,Brookland
"Washington, D.C.",Memorial Site,5780359f498e545aba123729,38.926639,-76.976661,Chuck Brown Memorial,Brookland
"Washington, D.C.",Cosmetics Shop,4c4f2386d667d13aebb795a1,38.92985591929145,-76.97473325872419,Browns Corner Barbershop,Brookland
3901 12th St NE,Chinese Restaurant,4cf70a9de308236aa3bde9ac,38.937494,-76.990513,New Tong Shin,Brookland
3934 12th St NE,Liquor Store,4f3205fa19833175d60aaf43,38.937761,-76.990253,Michigan Liquors,Brookland
3906 12th St NE,Flower Shop,4caf3dd7aef16dcbecc6a654,38.93753,-76.99075,Petals Ribbons & Beyond,Brookland
2117 Rhode Island Ave NE,Pizza Place,56bd3d40498e8e42f01300fc,38.92972242140093,-76.97430009828331,Manny & Olga's Pizza,Brookland
3924 12th street NE (Michigan Avenue),Thrift / Vintage Store,562eb194498e06940af1e569,38.93822352517276,-76.9899154025716,Bartered Threads,Brookland
2123 Rhode Island Ave NE,Chinese Restaurant,4c7457db3adda143af7104af,38.92994270578895,-76.97419883977638,Fu Kang,Brookland
3928 12th St NE (Randolph),Pizza Place,4bb54b7c941ad13a39151ee3,38.93802988515225,-76.99052879115618,Today's Pizza,Brookland
2204 Rhode Island Ave NE,Art Gallery,4a7decbcf964a52036f01fe3,38.93040608062142,-76.97378442903779,Art Enables,Brookland
"Washington, D.C.",Shopping Plaza,544bb620498e87637281f624,38.932982,-76.995095,Arts Walk,Brookland
2700 10th St NE,Mexican Restaurant,5ade8bec6fd6265d0866c87e,38.925821658640444,-76.9927453994751,Taqueria Del Barrio,Brookland
716 Monroe St NE,Farmers Market,5b06010d9be522002c0badfa,38.93322888469913,-76.9952130317688,Monroe Street Farmers Market,Brookland
2300 Rhode Island Ave NE Fl 2 (Thayer St NE),Men's Store,53d57486498e5bc579ff7206,38.9306257926294,-76.97334376458511,TrickBox,Brookland
2901 20th St NE,Dog Run,4e5576f96284680b53582c74,38.926526608726405,-76.97482011010305,Langdon Dog Park,Brookland
1901 Fort Pl SE,Museum,4b4cd6d6f964a52015c126e3,38.85672843484337,-76.97689924873403,Anacostia Community Museum,Skyland
3035 Naylor Rd SE,Liquor Store,522d13c611d2ac0fde628c7c,38.85345892938318,-76.96480210800982,LAX Wine & Spirits,Skyland
2845 Alabama Ave SE (at 17th St),Coffee Shop,4d9f02e9640b5481c366d62d,38.85927863293744,-76.96680111575837,Starbucks,Skyland
"2855 Alabama Ave SE, #H",Shoe Store,4c7e78930b2a9eb05175651f,38.85979922265639,-76.96631729459776,Payless ShoeSource,Skyland
2834 Alabama Ave SE,Pharmacy,572d3ba9498eb68737f90750,38.860429,-76.966515,CVS pharmacy,Skyland
2861 Alabama Ave SE,Sandwich Place,4cc1e274b2beb1f72b510c4c,38.860249891691254,-76.96546028878812,Subway,Skyland
"2831 Alabama Ave, SE (Good Hope Marketplace)",Bank,4d189ee18312236a362d66ba,38.8585980720055,-76.96759188562282,Capital One Bank,Skyland
2863 Alabama Ave SE (30th),Wings Joint,508041b8e4b0e5b150cd0d7a,38.86028443520015,-76.96531106658688,America's Best Wings,Skyland
3029 Naylor Rd SE,Convenience Store,551f3e97498e1d3a864247d5,38.8533717,-76.9651118,7-Eleven,Skyland
2849 Alabama Ave SE,Mobile Phone Shop,4e2c3400922ec3abaab0f0e8,38.859552,-76.966031,Cricket Wireless,Skyland
2721 Naylor Rd SE (Naylor Rd. SE),Fast Food Restaurant,4c80194ed92ea093aebc3472,38.8597666868779,-76.96835299324323,Popeyes Chicken & Biscuits,Skyland
2441 Good Hope Rd SE,Check Cashing Service,4dc85dd0c65be1b8e35175f4,38.861358657956515,-76.96989782969473,ACE Cash Express,Skyland
2529 Good Hope Rd SE (btwn 25th St SE & Naylor Rd SE),Fast Food Restaurant,4bd256f1caff952101bbd2f0,38.85997809736183,-76.96889511780228,McDonald's,Skyland
"Alabama Ave, SE (Naylor Rd, SE)",Intersection,4db5e1546e8179a91398cc6e,38.8602894100437,-76.96840446286302,Alabama Ave-Naylor Rd-Good Hope Rd Crossroads,Skyland
2851 Alabama Ave SE,Shoe Store,4d9f7da7e357a143cf08dc74,38.85977475905385,-76.96634542378753,Shoe City,Skyland
"Washington, D.C. 20020",Park,4cd170596200b1f73dd8d928,38.85754096203132,-76.97826599027789,Fort Stanton Park,Skyland
1801 Erie St SE,Recreation Center,56d8c6becd108d4b2da55ea1,38.857529,-76.978679,Fort Stanton Recreation Center,Skyland
3100 Denver St SE,Playground,4ce2f8bb2c20f04dd02ef022,38.858794247603285,-76.96226796303232,Hillcrest Recreation Center,Skyland
31st Street SE (at W Street SE),Park,4ec19d4af9f4d3ffc329e292,38.86349241956803,-76.96213085859173,Alger Park,Skyland
3027 Naylor Rd SE,Pizza Place,4eda564ff5b921398892070c,38.853466,-76.96508,Pizza Boli's,Skyland
3041 Naylor Rd SE,Grocery Store,4dcb06d8d4c0dfa030c7a94e,38.85356683,-76.96445128,People's Market,Skyland
East Capitol St (at Massachusetts Avenue NE and 12th Street NE),Park,49c3e7b8f964a52087561fe3,38.88987110053339,-76.99021351389004,Lincoln Park,Lincoln Park
921 Pennsylvania Ave SE (at 9th St SE),Coffee Shop,5a3539e8e57ca647283863d7,38.88323324257738,-76.99359549643728,Little Pearl,Lincoln Park
225 7th St SE (at North Carolina Ave. SE),Farmers Market,445eedc7f964a520fc321fe3,38.88654108953132,-76.99627973961427,Eastern Market,Lincoln Park
257 15th St SE,Bakery,4f92d531e4b01143d1aad9fc,38.88544865057227,-76.98382324382568,The Pretzel Bakery,Lincoln Park
212 7th St SE (btwn Independence Ave & C St SE),Italian Restaurant,4bf0569fa09076b012b129d4,38.886824,-76.996006,Acqua Al 2,Lincoln Park
210 7th St SE,Latin American Restaurant,4b098e41f964a520571923e3,38.886978447154824,-76.99595600366591,Tortilla Cafe,Lincoln Park
380 7th St SE,Cosmetics Shop,5b2acd73234724002c6cf8e6,38.88603917327661,-76.99297786398188,Sephora Studio,Lincoln Park
423 8th St SE,Chinese Restaurant,595ffbf103132020d46eb079,38.88304859757655,-76.99503612145953,ChiKo,Lincoln Park
660 Pennsylvania Ave SE (at 7th St SE),Coffee Shop,49ba773ef964a52065531fe3,38.885169,-76.996301,Peregrine Espresso,Lincoln Park
317 7th St SE,Bagel Shop,57d4058c498e4ecc015aa6ee,38.88560129931687,-76.99629683321412,Bullfrog Bagels,Lincoln Park
300 7th St SE (at C St SE),Flea Market,4a637b5bf964a52023c51fe3,38.88512406123133,-76.99619302772342,The Flea Market at Eastern Market,Lincoln Park
327 7th St SE (at Pennsylvania Ave. SE),Pizza Place,4abe8149f964a520188e20e3,38.88529663231303,-76.99625384288873,Seventh Hill,Lincoln Park
327 7th St SE (at Pennsylvania Ave. SE),French Restaurant,4bf7f6965efe2d7f38cb6934,38.885455907770506,-76.9962423122437,Montmartre,Lincoln Park
645 Pennsylvania Ave SE (btwn 6th & 7th Sts. SE),Toy / Game Store,4cefd7d0b80da09318a42e00,38.884594146933125,-76.9968330860138,Labyrinth Games & Puzzles,Lincoln Park
657 C St. SE (btwn 6th St. SE & 7th St. SE),Bookstore,4aeb489cf964a52087c021e3,38.885880259269776,-76.99656218290329,Capitol Hill Books,Lincoln Park
749 8th St SE (at Pennsylvania Ave SE),Spa,4bd096bbb221c9b6c7fed3d0,38.88361311500241,-76.9949532968252,Skin Beauty Bar,Lincoln Park
212 7th St SE,Speakeasy,50d26845e4b006c46d3cecf1,38.8869112022743,-76.99609340155726,Harold Black,Lincoln Park
635 N Carolina Ave SE,Pool,4aeaf0def964a520d0bc21e3,38.886754434980695,-76.99687361832613,William H. Rumsey Aquatic Center,Lincoln Park
404 8th St SE (btwn D & E Sts SE),Bakery,4df1486322718759f81641ec,38.8835942726393,-76.99495245070658,The Sweet Lobby,Lincoln Park
505 8th St SE (btwn E & G St SE),American Restaurant,4b7ae6d6f964a520e9442fe3,38.88247620736948,-76.99514162612523,Ted's Bulletin,Lincoln Park
303 7th St SE,Italian Restaurant,535144c811d23ed68b4c0675,38.88599555824531,-76.99630353609837,Radici,Lincoln Park
635 N Carolina Ave SE,Food Truck,4b5c718cf964a5201c3029e3,38.886821963756375,-76.99711739272767,Crepes at the Market,Lincoln Park
750 Pennsylvania Ave SE,Grocery Store,59a9fb2e26659b3259c35e15,38.88466820315038,-76.9955181017756,Trader Joe's,Lincoln Park
225 7th St SE,Breakfast Spot,4ad20de2f964a52012df20e3,38.886566977193795,-76.99639432237586,The Market Lunch,Lincoln Park
521 8th St SE (btwn E & G St SE),Pizza Place,4adb7c9cf964a520112821e3,38.88215,-76.99534,Matchbox Vintage Pizza Bistro,Lincoln Park
527 8th St SE,Greek Restaurant,4a58bc70f964a520bcb71fe3,38.881907015665305,-76.99524790048599,Cava Mezze,Lincoln Park
523 8th St SE (btwn E & G St SE),Eastern European Restaurant,50c62fe9e4b078192331546a,38.882070045263234,-76.99514310674265,Ambar Balkan Cuisine,Lincoln Park
660 Pennsylvania Ave SE (entrance on 7th St. SE),Ice Cream Shop,4e0e7b4b14956c6284fb5c93,38.885128053363786,-76.99624296565509,Pitango Gelato,Lincoln Park
545 8th St SE (G St SE),Wine Shop,51e59813498ea20c033202bb,38.88139638231453,-76.99512143022986,DCanter -- A Wine Boutique,Lincoln Park
623 Pennsylvania Ave SE (7th St & Pennsylvania Ave),American Restaurant,50ddff55e4b03fabdf051f03,38.88510620027779,-76.99754606673183,Beuchert's Saloon,Lincoln Park
717 8th St SE,New American Restaurant,523db723498ed9c5e025a588,38.880659828533844,-76.99517486409908,Rose's Luxury,Lincoln Park
613 Pennsylvania Ave SE (at 6th St SE),Whisky Bar,52d89cc9498e31e45143fff0,38.88529643779167,-76.99777854704647,Barrel,Lincoln Park
1007 E Street NE (10 Street SE),Spa,4c5d8fa7d25320a14445c67a,38.88267341236777,-76.99209802311944,Spa On The Hill,Lincoln Park
8th St. SE (between Pennsylvania Ave. and M St.),Plaza,4c3ce33d17f2ef3b043981f4,38.88145456663173,-76.99497194655814,Barracks Row,Lincoln Park
715 8th St SE,Restaurant,56bc950e498e82fc5478ebfc,38.88067720685155,-76.99518620967865,Pineapple and Pearls,Lincoln Park
"1400 (Independence Avenue., SW)",Food Truck,4f207fbb0cd69e04abcb9d2e,38.886046915911386,-76.99575937608259,Goodies Frozen Custard & Treats,Lincoln Park
539 8th St SE,Italian Restaurant,4e1cec54a809ef911eb77991,38.88155491501278,-76.99507020024208,Lavagna,Lincoln Park
514 8th St SE (at E St SE),Belgian Restaurant,4a61ffbaf964a520cdc21fe3,38.882185681090746,-76.99490593329081,Belga Cafe,Lincoln Park
1317 Pennsylvania Ave SE (btwn 13th & 14th St SE),Sandwich Place,4b019d15f964a520e64322e3,38.880936115739125,-76.98776185512543,Mangialardo & Sons,Lincoln Park
405 8th St Se,Pizza Place,5806860f38fa8c7a5212cb78,38.88349691720432,-76.99524101684801,&pizza,Lincoln Park
545 7th St SE (at G St SE),Art Gallery,4b05d664f964a52021e422e3,38.881452366146156,-76.99634994484103,Capitol Hill Arts Workshop,Lincoln Park
129 15th St SE (15th & A St SE),Chinese Restaurant,4dffd36c62844b4c4eb69bec,38.887917716666664,-76.98361533333333,Mandarin Carry-Out,Lincoln Park
738 7th St SE (btwn G & I St SE),Gym / Fitness Center,4fabc2740039cb4d16e4e7e8,38.88006807877894,-76.99596446761717,Biker Barre,Lincoln Park
516 8th St SE (rear alley) (btw E & G),Art Gallery,4a8890f7f964a520ef0620e3,38.882153434854246,-76.9943153711468,The Fridge DC,Lincoln Park
749 8th St SE,Donut Shop,53b053d8498ef536313c9dec,38.87962485779243,-76.99521839618683,District Doughnut,Lincoln Park
501 E Capitol St SE (at 5th St SE),Breakfast Spot,4ab4f1a4f964a520be7120e3,38.88976159107367,-76.99959824870166,Jimmy T's Place,Lincoln Park
520 8th St SE (btwn E & G St SE),Gay Bar,5af47cd032b61d002c4080ca,38.8819927831099,-76.99475530206772,Orchid,Lincoln Park
633 Pennsylvania Ave SE,Seafood Restaurant,537d6556498e89c92fc83d5b,38.88496824559823,-76.997185024013,Hank's Oyster Bar,Lincoln Park
514 8th St SE Rear,Cocktail Bar,55904744498e1c64e3f4c61c,38.882193063220974,-76.99445396661758,Betsy,Lincoln Park
535 8th St SE,Movie Theater,5111a55ae4b0d9f7bdeed943,38.88172297871082,-76.99505790723383,The Miracle Theatre,Lincoln Park
601 Pennsylvania Ave SE,American Restaurant,40b13b00f964a520b0f41ee3,38.885289042780414,-76.99835658613786,Mr. Henry's Restaurant,Lincoln Park
331 Pennsylvania Ave SE (4th St),Dive Bar,40b13b00f964a52046f31ee3,38.886373297171765,-77.00101412378245,Tune Inn Restaurant & Bar,Lincoln Park
645 Pennsylvania Ave SE #100,Bookstore,572501d4498e96aa91288986,38.88475332895294,-76.99677068430618,East City Bookshop,Lincoln Park
424 8th St SE (at E St SE),Mediterranean Restaurant,4a43936df964a52092a61fe3,38.88301532238792,-76.99487822757587,Cafe 8,Lincoln Park
524 8th St SE,Asian Restaurant,518c3628498e7d087647370b,38.88186288255072,-76.99468836611553,Nooshi,Lincoln Park
250 11th St NE (C St Ne),Convenience Store,527ff33511d2dc958c3f9dac,38.89353145759621,-76.99148469734797,7-River Mart,Lincoln Park
506 8th St SE,Italian Restaurant,4b5a64c6f964a52033c228e3,38.88244453316054,-76.99493182077603,Trattoria Alberto of Capitol Hill,Lincoln Park
"1501 Independence Ave SE, (15th Ave SE)",Convenience Store,57893713498e14ebe291c1a4,38.88746884798186,-76.98359027354293,7-Eleven,Lincoln Park
"Washington, D.C. 20003",Park,4b97d636f964a520051935e3,38.88639174744114,-76.9995277181654,Seward Square,Lincoln Park
621 Pennsylvania Ave SE,Salon / Barbershop,50df2129e4b08361bd8d8344,38.88505275247917,-76.99761411426292,Dupont Threading,Lincoln Park
1350 Potomac Ave SE,Supermarket,4abe8c9cf964a5206c8e20e3,38.880046125535436,-76.98675845769202,Harris Teeter,Lincoln Park
701 8th St. SE (at G St. SE),Bakery,4ecd46b602d5579951c0f208,38.88117689639756,-76.99510320539473,Spring Mill Bread Co.,Lincoln Park
1432 Pennsylvania Ave SE (at 15th St SE),Cocktail Bar,4a612efaf964a5200ec21fe3,38.88001428957883,-76.98424020649927,Wisdom,Lincoln Park
501 8th St SE,Seafood Restaurant,58570cc79dc8d068299ca6ce,38.882407,-76.99504,Ophelia's,Lincoln Park
D St NE (Tennessee Ave NE),Dog Run,4d8cc5c61a6bba7aa3c54a70,38.89522433856515,-76.98692716596696,Kingsman Dog Park,Lincoln Park
735 8th St SE (btwn G & I St SE),Sushi Restaurant,59e2aa4dc4df1d667eacb19d,38.88004,-76.99525,Sushi Hachi,Lincoln Park
401-499 E St SE,Playground,4be45f52cf200f47a8dd113c,38.883017141094676,-76.99987080022139,Marion Park (AKA Turtle Park),Lincoln Park
325 Pennsylvania Ave SE,Sushi Restaurant,51bbae58498e3cdc72c6f699,38.88661614421479,-77.00117281778049,Sushi Capitol,Lincoln Park
920 11th St SE,Gym,5092d019e4b07b04a99dc4d1,38.8785981,-76.9913421,Atlas Fitness,Lincoln Park
1420 Pennsylvania Ave SE (btwn Potomac Ave. & 15th St. SE),Dive Bar,49c2dbcef964a52034561fe3,38.880088419517435,-76.98446221962716,Trusty's,Lincoln Park
1506 East Capitol St NE,Chinese Restaurant,4da5d6500cb6d75e2a002cd4,38.88987494842982,-76.98326090340508,Hong Kong Carry Out,Lincoln Park
733 8th St SE,Pet Store,4fe75111e4b01b7b6c5ce2ea,38.88013258123962,-76.99506436159636,Howl To The Chief,Lincoln Park
1330 Pennsylvania Ave SE,Mexican Restaurant,4a6398b6f964a52069c51fe3,38.881192980863894,-76.98673227807035,La Lomita,Lincoln Park
Corner of 12th & E St NE,Playground,4b96c8aff964a52044e434e3,38.89596927638777,-76.99060911951999,Lovejoy Park,Lincoln Park
711 8th St SE (btwn I St and G St),Bar,4b79ebf3f964a5206b1a2fe3,38.88087138860568,-76.99520230293274,Lola's Barracks Bar & Grill,Lincoln Park
1350 Potomac Ave SE,Video Store,4e31c42f2fb6ede816e3529d,38.879873,-76.986593,Redbox,Lincoln Park
"Washington, D.C.",Grocery Store,4bd4dc4c6798ef3b4694628d,38.890018344905755,-77.00052351447336,The Corner Market,Lincoln Park
"336 Pennsylvania Ave, SE",Bank,4de91c2488774aa92cb0b5f6,38.88690328654799,-77.00082153081894,Capital One Bank,Lincoln Park
333 Pennsylvania Ave SE (3rd Street),Deli / Bodega,4ae10bfbf964a520d78421e3,38.886421854182835,-77.0008950475959,Roland's Grocery,Lincoln Park
1500 Pennsylvania Ave SE (15th St SE),Pizza Place,4ca1b6288afca09315501d16,38.87987972131929,-76.98578676692367,Domino's Pizza,Lincoln Park
914 11th St. Se (I St SE),Pizza Place,4c40f62bff711b8ddf411105,38.878730869533264,-76.9912984967674,Papa John's Pizza,Lincoln Park
705 8th St SE,Café,55298d22498e1232f5227b13,38.88100179225478,-76.99506756327253,Souk,Lincoln Park
417 E Capitol St SE,Bookstore,4b93f611f964a5201d5d34e3,38.88971945739589,-76.99979024050863,Riverby Books,Lincoln Park
1504 E Capitol St NE,Market,4eaee473c2ee782cf46a82a7,38.89004964699099,-76.98335180277536,The Cupboard Market,Lincoln Park
"715 8th St SE, #A",Furniture / Home Store,4bae5db3f964a5208ea83be3,38.880675702874925,-76.99509119649686,Homebody,Lincoln Park
401 8th St NE (at D St NE),Coffee Shop,4a903c85f964a520bb1620e3,38.8949307311585,-76.99476042143073,Jacob's Coffee House,Lincoln Park
415 14th St SE,Coffee Shop,4c66b4138e9120a18690d864,38.883561,-76.986553,Starbucks,Lincoln Park
"Washington, D.C. 20003",Dog Run,4bdf4ed1e75c0f476aa9ca03,38.88303897060042,-76.99899903244433,Marion Dog Park,Lincoln Park
723 8th St SE (btwn G & I St SE),Bar,4a613961f964a5201ec21fe3,38.880451330190226,-76.99532713738022,The Ugly Mug,Lincoln Park
1350 Potomac Ave SE,Sandwich Place,4b9a8dbef964a52097c035e3,38.87982970194994,-76.98718512977368,Subway,Lincoln Park
"407 8th St NE (at 8th Street, NE)",Convenience Store,4b2ad17af964a5203ab024e3,38.8951831560744,-76.9947147580342,7-Eleven,Lincoln Park
"Washington, D.C. 20003",Bus Stop,4f08ebdde4b07c8f8cab8b96,38.88759368809361,-76.98444239892186,WMATA Bus Stop #1000726 (96),Lincoln Park
329 Pennsylvania Ave SE (4th St SE),Bar,4f32831719836c91c7df040a,38.88648909722026,-77.00108908898106,Hawk 'n' Dove,Lincoln Park
1500 Massachusetts Ave SE (15th and massachusetts se),Restaurant,4c295c389fb5d13a681d9b57,38.88746852,-76.98356784,S And J Liquors,Lincoln Park
1500 Independence Ave SE,Convenience Store,4eaece5ec2ee782cf467c8b8,38.887754058217304,-76.98335603345186,SE Market & Liquor,Lincoln Park
14th & East Capitol St NE (at the Car Barn),Pool,4be72acf2457a593f0a2ad15,38.890597056367135,-76.98473596739822,The Car Barn Pool,Lincoln Park
"Washington, D.C.",Pet Store,4c0108eaad46c9b6cc4b9066,38.882930091397974,-76.98565678745825,Bonnie's Dog & Cat Grooming,Lincoln Park
201 15th St NE (Constitution Avenue),Grocery Store,4c1ec673b306c928739e67b7,38.89213627379871,-76.98518489689287,M & T Grocery Store,Lincoln Park
271 12th Street N.E.,Diner,5870145c809a7743ec387de8,38.8933582,-76.9899289,People's Family Restaurants,Lincoln Park
101 15th St NE (at A St NE),Coffee Shop,5c83c487c21cb1002c869d3f,38.891061,-76.983382,The Hill Cafe,Lincoln Park
4706 14th St NW (btwn Crittenden & Decatur St NW),Coffee Shop,4a881b38f964a5202c0520e3,38.94752275683515,-77.0327948932248,Highlands Cafe,16th Street Heights
5220 16th Street NW (16th and Kennedy St. NW),Tennis Court,4c28c130ed0ac9b636ad60aa,38.95412613455439,-77.03853161738695,William H.G. Fitzgerald Tennis Stadium,16th Street Heights
5501 14th St NW (at Colorado Ave NW),Gastropub,59fb8899a2a6ce3c218526ac,38.95663554336358,-77.03319063859641,Moreland's Tavern,16th Street Heights
4710 14th St NW,Diner,4d99e23f744f37040e811158,38.94765181233348,-77.03277959145964,Smokey's Fried Chicken,16th Street Heights
Rock Creek Park (in Rock Creek Park),Music Venue,4dfd2b397d8b305080178251,38.9502927718443,-77.04163519414313,Carter Barron Amphitheatre,16th Street Heights
"Washington, D.C. 20011",Tennis Court,4cfec5023f846dcb18f98c37,38.953737013494035,-77.03844727994978,Rock Creek Tennis Center,16th Street Heights
5409 Georgia Ave NW (Kennedy St NW),Bakery,4d65a544e07aa35daeb7a08f,38.955538708745145,-77.02787515435315,Crown Bakery,16th Street Heights
4300 Arkansas Ave NW (at Upshur St),Pool,4c042852f423a593ea3dd116,38.9443237964672,-77.03149910988044,Upshur Outdoor Pool,16th Street Heights
5332 Georgia Ave NW,Cosmetics Shop,4c93a37bf7cfa1cdd347ac15,38.954950994759116,-77.02802801742531,A Natural Motion,16th Street Heights
"Washington, D.C.",Gymnastics Gym,54c546d5498e78ed167d88a1,38.94658402538065,-77.03289294447585,Dance Loft on 14,16th Street Heights
5200 Georgia Ave NW (at Hamilton),Fried Chicken Joint,4aa05838f964a5203e3f20e3,38.95309260599168,-77.02794290851068,Popeyes,16th Street Heights
4532 Georgia Ave NW (at Buchanan St NW),Bakery,4b07fce1f964a520f80123e3,38.945983319685126,-77.0267246102566,Flip It Bakery & Deli,16th Street Heights
5600 Georgia Ave NW (at Madison St. NW),Drugstore,4ae0f26af964a520ef8321e3,38.9578123,-77.0285079,Rite Aid,16th Street Heights
4809 Georgia Ave NW,Caribbean Restaurant,52bfa54511d24ad040dc7f10,38.948676,-77.026974,Sandovan Restaurant & Lounge,16th Street Heights
5227 Georgia Ave NW,Pharmacy,4bfffb60ca1920a1789eed81,38.953848431387904,-77.02742719329825,CVS pharmacy,16th Street Heights
16th St NW (Colorado Ave NW),Bus Stop,4e6770c5ae609d64bce19486,38.95292668414898,-77.03644565417146,"WMATA Bus Stop #1002905 (D33, S1, S2, S4, S9)",16th Street Heights
4616 14th St NW,Breakfast Spot,4c2b4c36ae6820a1478c1743,38.946647578421455,-77.03294667508351,14th Street Snack Bar,16th Street Heights
4612 14th St NW,Cosmetics Shop,4c9bd426542b224b4e14db9f,38.94659221172333,-77.03297853469849,Darrell's Barber Shop,16th Street Heights
Arkansas Ave NW (at Allison St NW),Dog Run,4bd33831b221c9b60c2bd9d0,38.944842574890984,-77.03143313713737,Upshur Dog Park,16th Street Heights
16th St NW & Buchanan St NW,Bus Stop,57502d17498e738c4e5128e0,38.946209,-77.036596,"WMATA Bus Stop #1002862 (D33, S1, S2, S4, S9, W45)",16th Street Heights
"Washington, D.C. 20011",Park,4bddb3b4e75c0f477040c503,38.95486120045897,-77.03645689935266,Rock Creek Park Picnic Area 24,16th Street Heights
5500 Colorado Ave. NW,Café,5603690e498ea3075ca503aa,38.9559781,-77.0334484,Gold Coast Cafe,16th Street Heights
4413 14th St NW (Allison),Grocery Store,4e28820562e17c33019edfaf,38.94465723959937,-77.0327403100228,Super Saver Grocery,16th Street Heights
16th & Kennedy St NW,Athletics & Sports,4d4edb0e4a38b60c8027ee66,38.95501602740991,-77.03825611487434,DCGFFL,16th Street Heights
16th St NW (Morrow Dr NW),Bus Stop,4df54c59b0fb807158c8a1a7,38.955952289295986,-77.03649803463293,"WMATA Bus Stop #1002904 (S1, S2, S4 Southbound, D33 Eastbound)",16th Street Heights
5307 Georgia Ave NW,Liquor Store,4e9c7a8bb803b562d71d5d94,38.95438216580752,-77.02765703201294,Jefferson Liquor,16th Street Heights
4401 14th St NW (at Webster St NW),Mexican Restaurant,4cbdbd499552b60cafbeec8b,38.944140672683716,-77.03243136405945,El Don,16th Street Heights
5332 Georgia Ave,Spa,4e443c2a1fc752e91040164f,38.95497036211717,-77.02812910079956,D'Brows,16th Street Heights
12th st (E st),Food Truck,4c4f19259efabe9a36872d6b,38.94506158717206,-77.02897862300257,Food Chain DC,16th Street Heights
1226 Kennedy St NW,Health & Beauty Service,5ab06b776adbf502ef3a621b,38.956053,-77.029037,Beauty by Kenya,16th Street Heights
5509 14th St NW (Longfellow),Gym,4f0ee081e4b04a8cd90eeb8b,38.9570443706394,-77.03338562881278,Second Wind Training,16th Street Heights
4300 Arkansas Ave,Basketball Court,4cb00fa51463a143c8049aa9,38.942896218685966,-77.03260536363219,Upshur Recreation Center,16th Street Heights
"Washington, D.C. 20011",Intersection,5108148be4b0494a675d2711,38.952975526242184,-77.02401909012583,8th and Hamilton NW,16th Street Heights
"Washington, D.C. 20011",Playground,4c58a2e62091a593830b5bd0,38.9422880371404,-77.03262785470774,Upshur Playground,16th Street Heights
4400 Georgia Ave NW,Coffee Shop,5c61fead65cdf8002cea7abc,38.944033,-77.026187,Büna,16th Street Heights
827 Kennedy St NW,Latin American Restaurant,51f1c8cc498edc5ec0affb7c,38.95643534086617,-77.02524400541722,Centeno's,16th Street Heights
2200 South Dakota Ave NE (at 31st St NE),Thrift / Vintage Store,4a9f0546f964a5203e3c20e3,38.91953331810161,-76.95858485327912,Goodwill,Gateway
2700 New York Ave NE (at Bladensburg Rd NE),Chinese Restaurant,513f8628e4b05f168a2e4878,38.91765948356464,-76.9709238397034,Panda Gourmet,Gateway
"2135 Queens Chapel Road, NE (at Bladensburg Rd NE)",Concert Hall,504d1a19e4b04a78b04bd26c,38.91977949340142,-76.9727171656761,Echostage,Gateway
2438 Market Street NE,Hardware Store,560d9121498e19785e2539ab,38.9200274,-76.9547056,Lowe's Home Improvement,Gateway
"Washington, D.C. 20002",Garden,4c559748728920a1b4d8b584,38.91245601689615,-76.96905226270408,National Bonsai and Penjing Museum,Gateway
2200 Bladensburg Rd NE,Deli / Bodega,4af45f8df964a520d3f121e3,38.91971274908639,-76.97083035255903,Deli City,Gateway
2618 Bladensburg rd NE Washington DC 20018,Massage Studio,4f4686d0e4b03de98956528d,38.92386679252789,-76.9669209991276,Body Bliss Therapy,Gateway
3700 Fort Lincoln Dr NE,Pet Store,582104bb1c594422ca1b4d95,38.9218422127232,-76.9533712623762,PetSmart,Gateway
2430 Market Street NE,Coffee Shop,591d2f339deb7d3c40b37883,38.920258199573574,-76.95280397309743,Starbucks,Gateway
2440 Market Street Ne,Sandwich Place,5959b0554420d86b188c4ce5,38.92058221096594,-76.95277635550076,Jersey Mike's Subs,Gateway
Fort Lincoln Dr NE,Park,4c2f5ebd66e40f47d7bcc18b,38.92409676860915,-76.95821019186486,Fort Lincoln Park,Gateway
2470 Market Street Ne (THE SHOPS AT DAKOTA CROSSING),Sporting Goods Shop,57bf4b1a498eafd93d752380,38.91998714115635,-76.95654630661011,DICK'S Sporting Goods,Gateway
"Washington, D.C.",Department Store,581ba4b78edd3a4c1729dae6,38.92136167919335,-76.95350018706651,Marshall's,Gateway
2127 Queens Chapel Rd NE,Strip Club,4bb0a18af964a520af503ce3,38.91977329261015,-76.97231259278489,Stadium Club,Gateway
2482 Market St NE,Discount Store,58c1e9b5424f933529fccf36,38.92157815136727,-76.95346100084843,Five Below,Gateway
2420 New York Ave NE,Ice Cream Shop,4f91bd9b7beb818efa883f76,38.91773138459163,-76.97214552412481,Baskin-Robbins,Gateway
2440 Market Street NE,Chinese Restaurant,596d4997029a5555af893a55,38.92053859326721,-76.95279984373923,Panda Express,Gateway
2300 New York Ave NE (at Bladensburg Rd NE),Fast Food Restaurant,4c547f72fd2ea5936030322a,38.917710380630716,-76.97187379002571,Checkers,Gateway
2305 New York Avenue NE,Hotel,4bce044c937ca59313c5ad92,38.916597,-76.971503,"Fairfield Inn & Suites Washington, DC/New York Avenue",Gateway
3130 V Street NE,Shipping Store,4f7c8626e4b066eb23919878,38.919148,-76.962861,DHL Express ServicePoint,Gateway
3135 V Street NE,Liquor Store,4e207f651495f18f03447c4c,38.91863257819566,-76.96325820646587,Southern Wine & Spirits,Gateway
2122 24th Pl NE,Nightclub,54bb3614498ec3ed3da041b2,38.9199028658935,-76.97162481940084,Bliss,Gateway
3355 V St NE,Construction & Landscaping,59948ec56cf01a3cb19103ee,38.918296794313385,-76.95993661880493,Maurice Electrical Supply Inc,Gateway
2859 V Street NE,Business Service,4fe486dc4c7fada8d1962b13,38.918641,-76.967975,FASTSIGNS,Gateway
2850 Bladensburg Rd NE,Convenience Store,4bcfa981046076b0fed76e71,38.9271863155929,-76.9634462893009,7-Eleven,Gateway
2470 Market Street Ne (THE SHOPS AT DAKOTA CROSSING),Sporting Goods Shop,57bcda9e498e652a679bf6c7,38.92115951841507,-76.95419783279024,DICK'S Sporting Goods,Gateway
3521 V St NE,Wine Shop,59668c131de76505cae0c7d5,38.918434,-76.958364,Zachys DC,Gateway
"1925 Bladensburg Road, NE (at Bladensburg Rd NE)",Gas Station,50de6dbbe4b075c2dd384713,38.917250053962064,-76.97234804446644,Exxon,Gateway
2251 26th St NE (Bladensburg rd),Bus Station,4d9f94e853af236a2ca7730c,38.923597069915175,-76.96991215248842,Bladensburg Metro Bus Division,Gateway
2700 New York Ave NE,American Restaurant,4e9ca45b8b81791d976c4196,38.91734067288596,-76.97246055562196,Grand American Buffet,Gateway
"Washington, D.C.",Antique Shop,53af3e17498e36e5285bc4e0,38.923543865972135,-76.97159463373512,Off The Beaten Track,Gateway
2406 T St NE (at 24th St NE),Brewery,5ae0b8609be5224564d12b8f,38.9157184,-76.97204970000001,Supreme Core Cider,Gateway
2228 New York Ave NE,Fast Food Restaurant,4b7efd60f964a520b00e30e3,38.91773145821399,-76.97343282401562,McDonald's,Gateway
"Washington, D.C.",Intersection,536799f3498e0b444a2e1c2c,38.927103944440724,-76.96723992863978,South Dakota ave and Rhode Island ave,Gateway
Meadow Rd NE,Garden,4c66b5f0f7a80f4724af9e7a,38.91425695517264,-76.95570087538997,Dogwood Collection @ National Arboretum,Gateway
"Washington, D.C. 20002",Lake,4bf58eb15e800f47e4b5e5d4,38.91211081306275,-76.96955066224756,Koi Pond @ National Arboretum,Gateway
1501 New York Ave NE (at Fenwick St NE),Organic Grocery,540f230c498e1f8dbf92b307,38.91586042407238,-76.98374574044584,MOM's Organic Market,Brentwood
1356 Okie St NE,Seafood Restaurant,5648f94f498e5f3d48928ccc,38.91456927714026,-76.98547357111607,Ivy City Smokehouse,Brentwood
2002 Fenwick St NE (at Okie St NE),Bar,56c4f494cd1068423f363581,38.914786587432665,-76.98497772216795,Big Chief,Brentwood
1832 Fenwick St NE (at Gallaudet St NE),Distillery,506b61d8e4b06a23779e0ae4,38.91379559134223,-76.9843262101976,New Columbia Distillers,Brentwood
2003 Fenwick St NE (btwn Okie St & New York Ave NE),Diner,584b0bf09343e03b16d8dd24,38.91481956165274,-76.98455929756165,Ari's Diner,Brentwood
5149 Frolich Ln (Kenilworth),Design Studio,4d54bbd9fb65236ab5bff1b3,38.92399902090876,-76.99078873538247,House Studio,Brentwood
2052 W Virginia Ave NE #102 (btwn Fenwick & 16th St NE),Brewery,50c74401e0e2c0da8a4cb7dc,38.914794935336296,-76.98151499032974,Atlas Brew Works,Brentwood
1406 Okie St NE,Gym / Fitness Center,553699a0498e7a5f9bfbde90,38.91493796416533,-76.98385761401676,Planet Fitness,Brentwood
1403 New York Ave. NE (at Fenwick St NE),Sporting Goods Shop,553143cb498ea245f9ab45e1,38.91549377689535,-76.98477975916649,Nike Factory Store,Brentwood
905 Brentwood Rd NE,Sandwich Place,4b54ba61f964a5203bc927e3,38.91675962521102,-76.9940600857764,MGM Roast Beef,Brentwood
2711 12th St NE (at Evarts St NE),Pizza Place,4eb2b5c2490126a57058105a,38.92490143936268,-76.99019998311996,Menomalé Pizza Napoletana,Brentwood
1400 Okie St NE (at Fenwick St NE),Sports Bar,585581c36431e554e1067ed9,38.91477553209599,-76.98441939486541,Dock FC,Brentwood
2300 Washington Pl. NE (Rhode Island Row),Thai Restaurant,522fa1e411d2c9db54a03595,38.92082786717657,-76.9948923932748,Sala Thai,Brentwood
2003 Hecht Avenue,Cosmetics Shop,572a8406498eb17163f69bf6,38.91548187783012,-76.98368864632627,Ulta Beauty,Brentwood
2300 Washington Pl. N.E.,Sandwich Place,52b2354011d212bc07d387a0,38.920849,-76.994164,Jersey Mike's Subs,Brentwood
Metropolitan Branch Trail,Trail,4c0a5f306071a593b760df32,38.92147294364596,-76.99614644050598,Metropolitan Branch Trail (MBT),Brentwood
2052 W Virginia Ave NE,Cocktail Bar,55f48f77498e28b2e542e77c,38.91502317722033,-76.98157896492032,Murray Hill Club,Brentwood
1601 Rhode Island Ave NE (at 16th Pl NE),Brewery,56226fd5498ed9b3701282d6,38.92612422246211,-76.98172688484192,The Public Option,Brentwood
2350 Washington Pl NE,Southern / Soul Food Restaurant,52e83adb498e75e53f027a92,38.9214509023845,-76.9939435347938,Carolina Kitchen,Brentwood
1417 New York Ave NE,Department Store,59ea8a6d20795515bad8f221,38.9157353,-76.9839887,T.J. Maxx,Brentwood
1350 Okie St NE,Winery,5aba78c0f62f2b350f75790c,38.914408656883374,-76.9858279457887,City Winery,Brentwood
1060 Brentwood Rd NE,Clothing Store,4d7fb5e12ff9b60cc24cc347,38.92043253439359,-76.99353504274691,Ross Dress for Less,Brentwood
2001 Fenwick St NE (at Okie St NE),Mexican Restaurant,587ebc3b8f0be46e9cec2148,38.91472627751608,-76.98464351253067,La Puerta Verde,Brentwood
"617 Rhode Island Avenue, NE (Rhode Island Ave Metro)",Gym / Fitness Center,4cb63f3de262b60c10966de0,38.92067996304258,-76.99731051921844,The P Spot®  Fitness Studio,Brentwood
1503 New York Ave Ne,Pet Store,56e42b01498e09da1644a274,38.91628371604454,-76.98313023439364,Petco,Brentwood
"2350 Washington Place, Suite 109N, NE",Smoothie Shop,59dac6fa3fcee87d2a4ed8df,38.920897,-76.995027,Smoothie King,Brentwood
2800 10th St NE (at Franklin St NE),Food Court,5a3abc5fdff81536852619bb,38.92577203401797,-76.99265973183559,Tastemakers,Brentwood
1050 Brentwood Rd NE,Video Store,4d03cd51dc45a0932e5ee6c6,38.920151,-76.990313,Redbox,Brentwood
1513 Rhode Island Ave NE (Franklin),Liquor Store,4bb78cfe53649c74bfdb45fb,38.92582614907503,-76.98233146078893,Good Ole Reliable,Brentwood
"2300 Washington Pl NE, Ste 108",Mobile Phone Shop,515ee141e4b05d44b78bc9ae,38.921395697141904,-76.99403149577847,T-Mobile,Brentwood
1201-1233 Brentwood Rd NE,Sandwich Place,4db82bb56e81c67f61c788d6,38.92039975905073,-76.9895357637465,Subway,Brentwood
905 Rhode Island Avenue NE (Brentwood Rd NE),Bank,4e21af83d4c0d32590f1430f,38.92102428465636,-76.99284195899969,TD Bank,Brentwood
